"State","ValueType","SourceType","Category","Saline","FacilityName","FacilityName1","FacilityName2","FacilityNumber","FacilityNumber1","FacilityNumber2","SourceName","SourceName1","SourceNumber","SourceNumber1","NAICS","SIC","Description","HUC8","HUC10","HUC12","AquiferName1","AquiferName2","BasinName1","BasinName2","Address1","City1","County1","State1","Zip1","Address2","City2","Zip2","Lat","Lon","Datum","Year","Jan","Feb","Mar","Apr","May","Jun","Jul","Aug","Sep","Oct","Nov","Dec","Units_monthly","Method_monthly","Annual_reported","Units_annual_reported","Method_annual_reported","DataProtected"
"NV","WD","GW","IN",NA,"3d concrete limited liability corporation",NA,NA,"70932","17654",NA,NA,NA,NA,NA,NA,NA,NA,NA,NA,NA,NA,NA,"61",NA,NA,NA,"LA",NA,NA,NA,NA,NA,"40.696354999999997","-116.876226",NA,NA,NA,NA,NA,NA,NA,NA,NA,NA,NA,NA,NA,NA,NA,NA,NA,NA,NA,"TRUE"
"NV","WD","GW","IN",NA,"3d concrete limited liability corporation",NA,NA,"86854",NA,NA,NA,NA,NA,NA,NA,NA,NA,NA,NA,NA,NA,NA,"61",NA,NA,NA,"LA",NA,NA,NA,NA,NA,"40.696187000000002","-116.90115299999999",NA,NA,NA,NA,NA,NA,NA,NA,NA,NA,NA,NA,NA,NA,NA,NA,NA,NA,NA,"TRUE"
"NV","WD","GW","IN",NA,"a and k earth movers incorporated",NA,NA,"61085","15003",NA,NA,NA,NA,NA,NA,NA,NA,NA,NA,NA,NA,NA,"101",NA,NA,NA,"CH",NA,NA,NA,NA,NA,"39.503174999999999","-118.727519",NA,NA,NA,NA,NA,NA,NA,NA,NA,NA,NA,NA,NA,NA,NA,NA,NA,NA,NA,"TRUE"
"NV","WD",NA,NA,NA,"alcoa",NA,NA,NA,NA,NA,NA,NA,NA,NA,"332313","3443",NA,NA,NA,NA,NA,NA,NA,NA,NA,NA,NA,NA,NA,NA,NA,NA,NA,NA,NA,NA,NA,NA,NA,NA,NA,NA,NA,NA,NA,NA,NA,NA,NA,NA,NA,NA,NA,"TRUE"
"NV","WD","GW","IN",NA,"all lite aggregate dba",NA,NA,"63547","16975",NA,NA,NA,NA,NA,NA,NA,NA,NA,NA,NA,NA,NA,"83",NA,NA,NA,"WA",NA,NA,NA,NA,NA,"39.529752999999999","-119.61827599999999",NA,NA,NA,NA,NA,NA,NA,NA,NA,NA,NA,NA,NA,NA,NA,NA,NA,NA,NA,"TRUE"
"NV","WD",NA,NA,NA,"allied building materials",NA,NA,NA,NA,NA,NA,NA,NA,NA,"327331","3271",NA,NA,NA,NA,NA,NA,NA,NA,NA,NA,NA,NA,NA,NA,NA,NA,NA,NA,NA,NA,NA,NA,NA,NA,NA,NA,NA,NA,NA,NA,NA,NA,NA,NA,NA,NA,NA,"TRUE"
"NV","WD","GW","IN",NA,"amor ix limited liability corporation",NA,NA,"59592","14803",NA,NA,NA,NA,NA,NA,NA,NA,NA,NA,NA,NA,NA,"101",NA,NA,NA,"CH",NA,NA,NA,NA,NA,"39.561656999999997","-118.849037",NA,NA,NA,NA,NA,NA,NA,NA,NA,NA,NA,NA,NA,NA,NA,NA,NA,NA,NA,"TRUE"
"NV","WD","GW","IN",NA,"amor ix limited liability corporation",NA,NA,"59593","14804",NA,NA,NA,NA,NA,NA,NA,NA,NA,NA,NA,NA,NA,"101",NA,NA,NA,"CH",NA,NA,NA,NA,NA,"39.558743","-118.851085",NA,NA,NA,NA,NA,NA,NA,NA,NA,NA,NA,NA,NA,NA,NA,NA,NA,NA,NA,"TRUE"
"NV","WD","GW","IN",NA,"amor ix limited liability corporation",NA,NA,"59594","14805",NA,NA,NA,NA,NA,NA,NA,NA,NA,NA,NA,NA,NA,"101",NA,NA,NA,"CH",NA,NA,NA,NA,NA,"39.555692000000001","-118.840147",NA,NA,NA,NA,NA,NA,NA,NA,NA,NA,NA,NA,NA,NA,NA,NA,NA,NA,NA,"TRUE"
"NV","WD","GW","IN",NA,"amor ix limited liability corporation",NA,NA,"59595","14806",NA,NA,NA,NA,NA,NA,NA,NA,NA,NA,NA,NA,NA,"101",NA,NA,NA,"CH",NA,NA,NA,NA,NA,"39.555827000000001","-118.839832",NA,NA,NA,NA,NA,NA,NA,NA,NA,NA,NA,NA,NA,NA,NA,NA,NA,NA,NA,"TRUE"
"NV","WD","GW","IN",NA,"amor ix limited liability corporation",NA,NA,"60927","15897",NA,NA,NA,NA,NA,NA,NA,NA,NA,NA,NA,NA,NA,"101",NA,NA,NA,"CH",NA,NA,NA,NA,NA,"39.555647","-118.83876600000001",NA,NA,NA,NA,NA,NA,NA,NA,NA,NA,NA,NA,NA,NA,NA,NA,NA,NA,NA,"TRUE"
"NV","WD","GW","IN",NA,"anadarko petroleum corporation",NA,NA,"40885","12459",NA,NA,NA,NA,NA,NA,NA,NA,NA,NA,NA,NA,NA,"101",NA,NA,NA,"CH",NA,NA,NA,NA,NA,"39.295437999999997","-118.53674700000001",NA,NA,NA,NA,NA,NA,NA,NA,NA,NA,NA,NA,NA,NA,NA,NA,NA,NA,NA,"TRUE"
"NV","WD","GW","IN",NA,"arcadia air products company incorporated",NA,NA,"25354","8237",NA,NA,NA,NA,NA,NA,NA,NA,NA,NA,NA,NA,NA,"83",NA,NA,NA,"ST",NA,NA,NA,NA,NA,"39.562176000000001","-119.521682",NA,NA,NA,NA,NA,NA,NA,NA,NA,NA,NA,NA,NA,NA,NA,NA,NA,NA,NA,"TRUE"
"NV","WD","GW","IN",NA,"art wilson company",NA,NA,"87501",NA,NA,NA,NA,NA,NA,NA,NA,NA,NA,NA,NA,NA,NA,"107",NA,NA,NA,"LY",NA,NA,NA,NA,NA,"38.956763000000002","-119.292008",NA,NA,NA,NA,NA,NA,NA,NA,NA,NA,NA,NA,NA,NA,NA,NA,NA,NA,NA,"TRUE"
"NV","WD",NA,NA,NA,"asian union electric chemical corporation",NA,NA,NA,NA,NA,NA,NA,NA,NA,"325180","2819",NA,NA,NA,NA,NA,NA,NA,NA,NA,NA,NA,NA,NA,NA,NA,NA,NA,NA,NA,NA,NA,NA,NA,NA,NA,NA,NA,NA,NA,NA,NA,NA,NA,NA,NA,NA,NA,"TRUE"
"NV","WD","GW","IN",NA,"azzarello charles and kritikos judy r",NA,NA,"83324",NA,NA,NA,NA,NA,NA,NA,NA,NA,NA,NA,NA,NA,NA,"70",NA,NA,NA,"HU",NA,NA,NA,NA,NA,"40.998548","-117.711598",NA,NA,NA,NA,NA,NA,NA,NA,NA,NA,NA,NA,NA,NA,NA,NA,NA,NA,NA,"TRUE"
"NV","WD",NA,NA,NA,"baker hughes","formerly bentley nevada",NA,NA,NA,NA,NA,NA,NA,NA,"334519","3829",NA,NA,NA,NA,NA,NA,NA,NA,NA,NA,NA,NA,NA,NA,NA,NA,NA,NA,NA,NA,NA,NA,NA,NA,NA,NA,NA,NA,NA,NA,NA,NA,NA,NA,NA,NA,NA,"TRUE"
"NV","WD",NA,NA,NA,"basalite",NA,NA,NA,NA,NA,NA,NA,NA,NA,"327331","3271",NA,NA,NA,NA,NA,NA,NA,NA,NA,NA,NA,NA,NA,NA,NA,NA,NA,NA,NA,NA,NA,NA,NA,NA,NA,NA,NA,NA,NA,NA,NA,NA,NA,NA,NA,NA,NA,"TRUE"
"NV","WD","GW","IN",NA,"battle mountain gold company",NA,NA,"68406",NA,NA,NA,NA,NA,NA,NA,NA,NA,NA,NA,NA,NA,NA,"59",NA,NA,NA,"EU",NA,NA,NA,NA,NA,"40.690654000000002","-116.581461",NA,NA,NA,NA,NA,NA,NA,NA,NA,NA,NA,NA,NA,NA,NA,NA,NA,NA,NA,"TRUE"
"NV","WD","GW","IN",NA,"battle mountain gold company",NA,NA,"83836",NA,NA,NA,NA,NA,NA,NA,NA,NA,NA,NA,NA,NA,NA,"59",NA,NA,NA,"EU",NA,NA,NA,NA,NA,"40.687778000000002","-116.589444",NA,NA,NA,NA,NA,NA,NA,NA,NA,NA,NA,NA,NA,NA,NA,NA,NA,NA,NA,"TRUE"
"NV","WD","GW","IN",NA,"bema gold u s incorporated",NA,NA,"24035","7973",NA,NA,NA,NA,NA,NA,NA,NA,NA,NA,NA,NA,NA,"154",NA,NA,NA,"WP",NA,NA,NA,NA,NA,"39.252277999999997","-115.600554",NA,NA,NA,NA,NA,NA,NA,NA,NA,NA,NA,NA,NA,NA,NA,NA,NA,NA,NA,"TRUE"
"NV","WD","GW","IN",NA,"beowawe power limited liability corporation",NA,NA,"75174",NA,NA,NA,NA,NA,NA,NA,NA,NA,NA,NA,NA,NA,NA,"60",NA,NA,NA,"LA",NA,NA,NA,NA,NA,"40.554456000000002","-116.62305600000001",NA,NA,NA,NA,NA,NA,NA,NA,NA,NA,NA,NA,NA,NA,NA,NA,NA,NA,NA,"TRUE"
"NV","WD","GW","IN",NA,"bing construction company",NA,NA,"53265","14147",NA,NA,NA,NA,NA,NA,NA,NA,NA,NA,NA,NA,NA,"105",NA,NA,NA,"DO",NA,NA,NA,NA,NA,"38.897426000000003","-119.748504",NA,NA,NA,NA,NA,NA,NA,NA,NA,NA,NA,NA,NA,NA,NA,NA,NA,NA,NA,"TRUE"
"NV","WD","GW","IN",NA,"bing construction company",NA,NA,"53266","14214",NA,NA,NA,NA,NA,NA,NA,NA,NA,NA,NA,NA,NA,"105",NA,NA,NA,"DO",NA,NA,NA,NA,NA,"38.897426000000003","-119.748504",NA,NA,NA,NA,NA,NA,NA,NA,NA,NA,NA,NA,NA,NA,NA,NA,NA,NA,NA,"TRUE"
"NV","WD","GW","IN",NA,"bing construction company",NA,NA,"53267","14148",NA,NA,NA,NA,NA,NA,NA,NA,NA,NA,NA,NA,NA,"105",NA,NA,NA,"DO",NA,NA,NA,NA,NA,"38.895454999999998","-119.747338",NA,NA,NA,NA,NA,NA,NA,NA,NA,NA,NA,NA,NA,NA,NA,NA,NA,NA,NA,"TRUE"
"NV","WD","GW","IN",NA,"bing construction company",NA,NA,"57253","14219",NA,NA,NA,NA,NA,NA,NA,NA,NA,NA,NA,NA,NA,"105",NA,NA,NA,"DO",NA,NA,NA,NA,NA,"38.897426000000003","-119.748504",NA,NA,NA,NA,NA,NA,NA,NA,NA,NA,NA,NA,NA,NA,NA,NA,NA,NA,NA,"TRUE"
"NV","WD","GW","IN",NA,"bing construction company",NA,NA,"67735",NA,NA,NA,NA,NA,NA,NA,NA,NA,NA,NA,NA,NA,NA,"105",NA,NA,NA,"DO",NA,NA,NA,NA,NA,"38.896745000000003","-119.74888799999999",NA,NA,NA,NA,NA,NA,NA,NA,NA,NA,NA,NA,NA,NA,NA,NA,NA,NA,NA,"TRUE"
"NV","WD","GW","IN",NA,"bing construction company",NA,NA,"69233",NA,NA,NA,NA,NA,NA,NA,NA,NA,NA,NA,NA,NA,NA,"105",NA,NA,NA,"DO",NA,NA,NA,NA,NA,"38.896745000000003","-119.74888799999999",NA,NA,NA,NA,NA,NA,NA,NA,NA,NA,NA,NA,NA,NA,NA,NA,NA,NA,NA,"TRUE"
"NV","WD","GW","IN",NA,"bing construction company of nevada",NA,NA,"24427","7330",NA,NA,NA,NA,NA,NA,NA,NA,NA,NA,NA,NA,NA,"105",NA,NA,NA,"DO",NA,NA,NA,NA,NA,"38.896745000000003","-119.74888799999999",NA,NA,NA,NA,NA,NA,NA,NA,NA,NA,NA,NA,NA,NA,NA,NA,NA,NA,NA,"TRUE"
"NV","WD","GW","IN",NA,"blm",NA,NA,"80719","21151",NA,NA,NA,NA,NA,NA,NA,NA,NA,NA,NA,NA,NA,"212",NA,NA,NA,"CL",NA,NA,NA,NA,NA,"36.133642000000002","-115.393512",NA,NA,NA,NA,NA,NA,NA,NA,NA,NA,NA,NA,NA,NA,NA,NA,NA,NA,NA,"TRUE"
"NV","WD","GW","IN",NA,"brady power partners",NA,NA,"59711","15030",NA,NA,NA,NA,NA,NA,NA,NA,NA,NA,NA,NA,NA,"75",NA,NA,NA,"CH",NA,NA,NA,NA,NA,"39.791238","-119.029233",NA,NA,NA,NA,NA,NA,NA,NA,NA,NA,NA,NA,NA,NA,NA,NA,NA,NA,NA,"TRUE"
"NV","WD","GW","IN",NA,"brady power partners",NA,NA,"84588",NA,NA,NA,NA,NA,NA,NA,NA,NA,NA,NA,NA,NA,NA,"75",NA,NA,NA,"CH",NA,NA,NA,NA,NA,"39.795676","-119.020321",NA,NA,NA,NA,NA,NA,NA,NA,NA,NA,NA,NA,NA,NA,NA,NA,NA,NA,NA,"TRUE"
"NV","WD","GW","IN",NA,"brady power partners",NA,NA,"84589",NA,NA,NA,NA,NA,NA,NA,NA,NA,NA,NA,NA,NA,NA,"75",NA,NA,NA,"CH",NA,NA,NA,NA,NA,"39.795670999999999","-119.02030999999999",NA,NA,NA,NA,NA,NA,NA,NA,NA,NA,NA,NA,NA,NA,NA,NA,NA,NA,NA,"TRUE"
"NV","WD","GW","IN",NA,"break a heart limited liability corporation",NA,NA,"81951","21540",NA,NA,NA,NA,NA,NA,NA,NA,NA,NA,NA,NA,NA,"108",NA,NA,NA,"LY",NA,NA,NA,NA,NA,"39.148502999999998","-119.19034499999999",NA,NA,NA,NA,NA,NA,NA,NA,NA,NA,NA,NA,NA,NA,NA,NA,NA,NA,NA,"TRUE"
"NV","WD","GW","IN",NA,"break a heart limited liability corporation",NA,NA,"30867","11225",NA,NA,NA,NA,NA,NA,NA,NA,NA,NA,NA,NA,NA,"108",NA,NA,NA,"LY",NA,NA,NA,NA,NA,"39.161935999999997","-119.181009",NA,NA,NA,NA,NA,NA,NA,NA,NA,NA,NA,NA,NA,NA,NA,NA,NA,NA,NA,"TRUE"
"NV","WD","GW","IN",NA,"break a heart limited liability corporation",NA,NA,"30868","11226",NA,NA,NA,NA,NA,NA,NA,NA,NA,NA,NA,NA,NA,"108",NA,NA,NA,"LY",NA,NA,NA,NA,NA,"39.161228999999999","-119.18299",NA,NA,NA,NA,NA,NA,NA,NA,NA,NA,NA,NA,NA,NA,NA,NA,NA,NA,NA,"TRUE"
"NV","WD","GW","IN",NA,"break a heart limited liability corporation",NA,NA,"45184","11853",NA,NA,NA,NA,NA,NA,NA,NA,NA,NA,NA,NA,NA,"108",NA,NA,NA,"LY",NA,NA,NA,NA,NA,"39.161228999999999","-119.18299",NA,NA,NA,NA,NA,NA,NA,NA,NA,NA,NA,NA,NA,NA,NA,NA,NA,NA,NA,"TRUE"
"NV","WD","GW","IN",NA,"break a heart limited liability corporation",NA,NA,"45595","11242",NA,NA,NA,NA,NA,NA,NA,NA,NA,NA,NA,NA,NA,"108",NA,NA,NA,"LY",NA,NA,NA,NA,NA,"39.147568","-119.1913",NA,NA,NA,NA,NA,NA,NA,NA,NA,NA,NA,NA,NA,NA,NA,NA,NA,NA,NA,"TRUE"
"NV","WD","GW","IN",NA,"caithness oper water rights limited liability corporation",NA,NA,"50914","15205",NA,NA,NA,NA,NA,NA,NA,NA,NA,NA,NA,NA,NA,"88",NA,NA,NA,"WA",NA,NA,NA,NA,NA,"39.370666999999997","-119.771693",NA,NA,NA,NA,NA,NA,NA,NA,NA,NA,NA,NA,NA,NA,NA,NA,NA,NA,NA,"TRUE"
"NV","WD","GW","IN",NA,"caithness oper water rights limited liability corporation",NA,NA,"55191","15206",NA,NA,NA,NA,NA,NA,NA,NA,NA,NA,NA,NA,NA,"88",NA,NA,NA,"WA",NA,NA,NA,NA,NA,"39.37426","-119.768477",NA,NA,NA,NA,NA,NA,NA,NA,NA,NA,NA,NA,NA,NA,NA,NA,NA,NA,NA,"TRUE"
"NV","WD","GW","IN",NA,"caithness oper water rights limited liability corporation",NA,NA,"55192","15207",NA,NA,NA,NA,NA,NA,NA,NA,NA,NA,NA,NA,NA,"88",NA,NA,NA,"WA",NA,NA,NA,NA,NA,"39.370100000000001","-119.76649399999999",NA,NA,NA,NA,NA,NA,NA,NA,NA,NA,NA,NA,NA,NA,NA,NA,NA,NA,NA,"TRUE"
"NV","WD","GW","IN",NA,"caithness oper water rights limited liability corporation",NA,NA,"55194",NA,NA,NA,NA,NA,NA,NA,NA,NA,NA,NA,NA,NA,NA,"87",NA,NA,NA,"WA",NA,NA,NA,NA,NA,"39.376567999999999","-119.767954",NA,NA,NA,NA,NA,NA,NA,NA,NA,NA,NA,NA,NA,NA,NA,NA,NA,NA,NA,"TRUE"
"NV","WD","GW","IN",NA,"caithness oper water rights limited liability corporation",NA,NA,"55196","18735",NA,NA,NA,NA,NA,NA,NA,NA,NA,NA,NA,NA,NA,"87",NA,NA,NA,"WA",NA,NA,NA,NA,NA,"39.383560000000003","-119.76603299999999",NA,NA,NA,NA,NA,NA,NA,NA,NA,NA,NA,NA,NA,NA,NA,NA,NA,NA,NA,"TRUE"
"NV","WD","GW","IN",NA,"caithness power water rights limited liability corporation",NA,NA,"66448","18421",NA,NA,NA,NA,NA,NA,NA,NA,NA,NA,NA,NA,NA,"88",NA,NA,NA,"WA",NA,NA,NA,NA,NA,"39.368879999999997","-119.76785",NA,NA,NA,NA,NA,NA,NA,NA,NA,NA,NA,NA,NA,NA,NA,NA,NA,NA,NA,"TRUE"
"NV","WD","WW","IN",NA,"canyon general improvement district",NA,NA,"85267S02",NA,NA,NA,NA,NA,NA,NA,NA,NA,NA,NA,NA,NA,NA,"83",NA,NA,NA,"ST",NA,NA,NA,NA,NA,"39.494722000000003","-119.61833300000001",NA,NA,NA,NA,NA,NA,NA,NA,NA,NA,NA,NA,NA,NA,NA,NA,NA,NA,NA,"TRUE"
"NV","WD","GW","IN",NA,"cemex construction materials pacific limited liability corporation",NA,NA,"73658",NA,NA,NA,NA,NA,NA,NA,NA,NA,NA,NA,NA,NA,NA,"212",NA,NA,NA,"CL",NA,NA,NA,NA,NA,"35.923969999999997","-115.194332",NA,NA,NA,NA,NA,NA,NA,NA,NA,NA,NA,NA,NA,NA,NA,NA,NA,NA,NA,"TRUE"
"NV","WD","GW","IN",NA,"cemex construction materials pacific limited liability corporation",NA,NA,"89417",NA,NA,NA,NA,NA,NA,NA,NA,NA,NA,NA,NA,NA,NA,"212",NA,NA,NA,"CL",NA,NA,NA,NA,NA,"35.947797000000001","-115.17580100000001",NA,NA,NA,NA,NA,NA,NA,NA,NA,NA,NA,NA,NA,NA,NA,NA,NA,NA,NA,"TRUE"
"NV","WD","SW","IN",NA,"central pacific railway company",NA,NA,"V01581",NA,NA,NA,NA,NA,NA,NA,NA,NA,NA,NA,NA,NA,NA,"72",NA,NA,NA,"PE",NA,NA,NA,NA,NA,"40.776184999999998","-117.963129",NA,NA,NA,NA,NA,NA,NA,NA,NA,NA,NA,NA,NA,NA,NA,NA,NA,NA,NA,"TRUE"
"NV","WD","SW","IN",NA,"central pacific railway company",NA,NA,"V01586",NA,NA,NA,NA,NA,NA,NA,NA,NA,NA,NA,NA,NA,NA,"121a",NA,NA,NA,"MI",NA,NA,NA,NA,NA,"38.427072000000003","-118.074636",NA,NA,NA,NA,NA,NA,NA,NA,NA,NA,NA,NA,NA,NA,NA,NA,NA,NA,NA,"TRUE"
"NV","WD","SW","IN",NA,"central pacific railway company",NA,NA,"V01578",NA,NA,NA,NA,NA,NA,NA,NA,NA,NA,NA,NA,NA,NA,"189d",NA,NA,NA,"EL",NA,NA,NA,NA,NA,"41.284936999999999","-114.324388",NA,NA,NA,NA,NA,NA,NA,NA,NA,NA,NA,NA,NA,NA,NA,NA,NA,NA,NA,"TRUE"
"NV","WD","SW","IN",NA,"central pacific railway company",NA,NA,"V01579",NA,NA,NA,NA,NA,NA,NA,NA,NA,NA,NA,NA,NA,NA,"70",NA,NA,NA,"HU",NA,NA,NA,NA,NA,"40.915759999999999","-117.53169800000001",NA,NA,NA,NA,NA,NA,NA,NA,NA,NA,NA,NA,NA,NA,NA,NA,NA,NA,NA,"TRUE"
"NV","WD","SW","IN",NA,"central pacific railway company",NA,NA,"V01580",NA,NA,NA,NA,NA,NA,NA,NA,NA,NA,NA,NA,NA,NA,"52",NA,NA,NA,"EU",NA,NA,NA,NA,NA,"40.608725999999997","-116.21209899999999",NA,NA,NA,NA,NA,NA,NA,NA,NA,NA,NA,NA,NA,NA,NA,NA,NA,NA,NA,"TRUE"
"NV","WD","SW","IN",NA,"central pacific railway company",NA,NA,"V01582",NA,NA,NA,NA,NA,NA,NA,NA,NA,NA,NA,NA,NA,NA,"52",NA,NA,NA,"EL",NA,NA,NA,NA,NA,"40.713644000000002","-116.12904899999999",NA,NA,NA,NA,NA,NA,NA,NA,NA,NA,NA,NA,NA,NA,NA,NA,NA,NA,NA,"TRUE"
"NV","WD",NA,NA,NA,"chemical lime",NA,NA,NA,NA,NA,NA,NA,NA,NA,"327410","3264",NA,NA,NA,NA,NA,NA,NA,NA,NA,NA,NA,NA,NA,NA,NA,NA,NA,NA,NA,NA,NA,NA,NA,NA,NA,NA,NA,NA,NA,NA,NA,NA,NA,NA,NA,NA,NA,"TRUE"
"NV","WD","GW","IN",NA,"churchill county",NA,NA,"66367",NA,NA,NA,NA,NA,NA,NA,NA,NA,NA,NA,NA,NA,NA,"101",NA,NA,NA,"CH",NA,NA,NA,NA,NA,"39.535778999999998","-119.01847100000001",NA,NA,NA,NA,NA,NA,NA,NA,NA,NA,NA,NA,NA,NA,NA,NA,NA,NA,NA,"TRUE"
"NV","WD","SW","IN",NA,"clark county board of commissioners",NA,NA,"19575","5632",NA,NA,NA,NA,NA,NA,NA,NA,NA,NA,NA,NA,NA,"212",NA,NA,NA,"CL",NA,NA,NA,NA,NA,"36.308129999999998","-115.62858799999999",NA,NA,NA,NA,NA,NA,NA,NA,NA,NA,NA,NA,NA,NA,NA,NA,NA,NA,NA,"TRUE"
"NV","WD","GW","IN",NA,"cometco resources limited liability corporation",NA,NA,"27928","10356",NA,NA,NA,NA,NA,NA,NA,NA,NA,NA,NA,NA,NA,"103",NA,NA,NA,"CC",NA,NA,NA,NA,NA,"39.190100999999999","-119.69426300000001",NA,NA,NA,NA,NA,NA,NA,NA,NA,NA,NA,NA,NA,NA,NA,NA,NA,NA,NA,"TRUE"
"NV","WD","GW","IN",NA,"cooper and sons incorporated",NA,NA,"42903","13248",NA,NA,NA,NA,NA,NA,NA,NA,NA,NA,NA,NA,NA,"179",NA,NA,NA,"WP",NA,NA,NA,NA,NA,"39.340023000000002","-114.812631",NA,NA,NA,NA,NA,NA,NA,NA,NA,NA,NA,NA,NA,NA,NA,NA,NA,NA,NA,"TRUE"
"NV","WD","WW","IN",NA,"coyote springs reuse water company limited liability corporation a nevada limited liability company",NA,NA,"77340S02",NA,NA,NA,NA,NA,NA,NA,NA,NA,NA,NA,NA,NA,NA,"210",NA,NA,NA,"CL",NA,NA,NA,NA,NA,"36.797843999999998","-114.894004",NA,NA,NA,NA,NA,NA,NA,NA,NA,NA,NA,NA,NA,NA,NA,NA,NA,NA,NA,"TRUE"
"NV","WD","GW","IN",NA,"cyanco",NA,NA,"54244","15038",NA,NA,NA,NA,NA,"325180","2819",NA,NA,NA,NA,NA,NA,"70",NA,NA,NA,"HU",NA,NA,NA,NA,NA,"40.941631999999998","-117.86274400000001",NA,NA,NA,NA,NA,NA,NA,NA,NA,NA,NA,NA,NA,NA,NA,NA,NA,NA,NA,"TRUE"
"NV","WD","GW","IN",NA,"cyanco",NA,NA,"54245","15037",NA,NA,NA,NA,NA,"325180","2819",NA,NA,NA,NA,NA,NA,"70",NA,NA,NA,"HU",NA,NA,NA,NA,NA,"40.941659999999999","-117.856869",NA,NA,NA,NA,NA,NA,NA,NA,NA,NA,NA,NA,NA,NA,NA,NA,NA,NA,NA,"TRUE"
"NV","WD","GW","IN",NA,"cyanco",NA,NA,"84713",NA,NA,NA,NA,NA,NA,"325180","2819",NA,NA,NA,NA,NA,NA,"70",NA,NA,NA,"HU",NA,NA,NA,NA,NA,"40.941648000000001","-117.85688399999999",NA,NA,NA,NA,NA,NA,NA,NA,NA,NA,NA,NA,NA,NA,NA,NA,NA,NA,NA,"TRUE"
"NV","WD","GW","IN",NA,"d and g investments",NA,NA,"45226","11270",NA,NA,NA,NA,NA,NA,NA,NA,NA,NA,NA,NA,NA,"108",NA,NA,NA,"LY",NA,NA,NA,NA,NA,"38.975692000000002","-119.186307",NA,NA,NA,NA,NA,NA,NA,NA,NA,NA,NA,NA,NA,NA,NA,NA,NA,NA,NA,"TRUE"
"NV","WD","GW","IN",NA,"daffer daniel i",NA,NA,"49456","15113",NA,NA,NA,NA,NA,NA,NA,NA,NA,NA,NA,NA,NA,"162",NA,NA,NA,"NY",NA,NA,NA,NA,NA,"36.176600000000001","-115.9233",NA,NA,NA,NA,NA,NA,NA,NA,NA,NA,NA,NA,NA,NA,NA,NA,NA,NA,NA,"TRUE"
"NV","WD","GW","IN",NA,"day jeremiah m and eowyn l",NA,NA,"80791",NA,NA,NA,NA,NA,NA,NA,NA,NA,NA,NA,NA,NA,NA,"70",NA,NA,NA,"HU",NA,NA,NA,NA,NA,"40.914237999999997","-117.832581",NA,NA,NA,NA,NA,NA,NA,NA,NA,NA,NA,NA,NA,NA,NA,NA,NA,NA,NA,"TRUE"
"NV","WD","GW","IN",NA,"denton donald f",NA,NA,"27373","8830",NA,NA,NA,NA,NA,NA,NA,NA,NA,NA,NA,NA,NA,"104",NA,NA,NA,"CC",NA,NA,NA,NA,NA,"39.190758000000002","-119.69468500000001",NA,NA,NA,NA,NA,NA,NA,NA,NA,NA,NA,NA,NA,NA,NA,NA,NA,NA,NA,"TRUE"
"NV","WD","GW","IN",NA,"denton donald f",NA,NA,"29434","9695",NA,NA,NA,NA,NA,NA,NA,NA,NA,NA,NA,NA,NA,"104",NA,NA,NA,"CC",NA,NA,NA,NA,NA,"39.190758000000002","-119.69468500000001",NA,NA,NA,NA,NA,NA,NA,NA,NA,NA,NA,NA,NA,NA,NA,NA,NA,NA,NA,"TRUE"
"NV","WD","GW","IN",NA,"desert enterprises",NA,NA,"30167","9877",NA,NA,NA,NA,NA,NA,NA,NA,NA,NA,NA,NA,NA,"104",NA,NA,NA,"CC",NA,NA,NA,NA,NA,"39.189621000000002","-119.700613",NA,NA,NA,NA,NA,NA,NA,NA,NA,NA,NA,NA,NA,NA,NA,NA,NA,NA,NA,"TRUE"
"NV","WD",NA,NA,NA,"diamond plastics",NA,NA,"60423/81540",NA,NA,NA,NA,NA,NA,"326122","3084",NA,NA,NA,NA,NA,NA,NA,NA,NA,NA,NA,NA,NA,NA,NA,NA,NA,NA,NA,NA,NA,NA,NA,NA,NA,NA,NA,NA,NA,NA,NA,NA,NA,NA,NA,NA,NA,"TRUE"
"NV","WD","GW","IN",NA,"diamond plastics corporation",NA,NA,"60423","18101",NA,NA,NA,NA,NA,NA,NA,NA,NA,NA,NA,NA,NA,"70",NA,NA,NA,"HU",NA,NA,NA,NA,NA,"40.973514999999999","-117.49149",NA,NA,NA,NA,NA,NA,NA,NA,NA,NA,NA,NA,NA,NA,NA,NA,NA,NA,NA,"TRUE"
"NV","WD","GW","IN",NA,"diamond plastics corporation",NA,NA,"81540",NA,NA,NA,NA,NA,NA,NA,NA,NA,NA,NA,NA,NA,NA,"70",NA,NA,NA,"HU",NA,NA,NA,NA,NA,"40.973481","-117.491046",NA,NA,NA,NA,NA,NA,NA,NA,NA,NA,NA,NA,NA,NA,NA,NA,NA,NA,NA,"TRUE"
"NV","WD","GW","IN",NA,"dixie valley power partnership",NA,NA,"57312",NA,NA,NA,NA,NA,NA,NA,NA,NA,NA,NA,NA,NA,NA,"128",NA,NA,NA,"CH",NA,NA,NA,NA,NA,"39.944978999999996","-117.90338",NA,NA,NA,NA,NA,NA,NA,NA,NA,NA,NA,NA,NA,NA,NA,NA,NA,NA,NA,"TRUE"
"NV","WD","GW","IN",NA,"dixie valley power partnership",NA,NA,"57313",NA,NA,NA,NA,NA,NA,NA,NA,NA,NA,NA,NA,NA,NA,"128",NA,NA,NA,"CH",NA,NA,NA,NA,NA,"39.946342000000001","-117.89093800000001",NA,NA,NA,NA,NA,NA,NA,NA,NA,NA,NA,NA,NA,NA,NA,NA,NA,NA,NA,"TRUE"
"NV","WD","GW","IN",NA,"dixie valley power partnership",NA,NA,"57314",NA,NA,NA,NA,NA,NA,NA,NA,NA,NA,NA,NA,NA,NA,"128",NA,NA,NA,"CH",NA,NA,NA,NA,NA,"39.943882000000002","-117.90700099999999",NA,NA,NA,NA,NA,NA,NA,NA,NA,NA,NA,NA,NA,NA,NA,NA,NA,NA,NA,"TRUE"
"NV","WD","GW","IN",NA,"dixie valley power partnership",NA,NA,"57315",NA,NA,NA,NA,NA,NA,NA,NA,NA,NA,NA,NA,NA,NA,"128",NA,NA,NA,"CH",NA,NA,NA,NA,NA,"39.947476999999999","-117.895439",NA,NA,NA,NA,NA,NA,NA,NA,NA,NA,NA,NA,NA,NA,NA,NA,NA,NA,NA,"TRUE"
"NV","WD","GW","IN",NA,"dixie valley power partnership",NA,NA,"57316",NA,NA,NA,NA,NA,NA,NA,NA,NA,NA,NA,NA,NA,NA,"128",NA,NA,NA,"CH",NA,NA,NA,NA,NA,"39.943185999999997","-117.889797",NA,NA,NA,NA,NA,NA,NA,NA,NA,NA,NA,NA,NA,NA,NA,NA,NA,NA,NA,"TRUE"
"NV","WD","GW","IN",NA,"dixie valley power partnership",NA,NA,"58073",NA,NA,NA,NA,NA,NA,NA,NA,NA,NA,NA,NA,NA,NA,"128",NA,NA,NA,"CH",NA,NA,NA,NA,NA,"39.933461999999999","-117.904203",NA,NA,NA,NA,NA,NA,NA,NA,NA,NA,NA,NA,NA,NA,NA,NA,NA,NA,NA,"TRUE"
"NV","WD","GW","IN",NA,"dixie valley power partnership",NA,NA,"58074",NA,NA,NA,NA,NA,NA,NA,NA,NA,NA,NA,NA,NA,NA,"128",NA,NA,NA,"CH",NA,NA,NA,NA,NA,"39.935088999999998","-117.89751200000001",NA,NA,NA,NA,NA,NA,NA,NA,NA,NA,NA,NA,NA,NA,NA,NA,NA,NA,NA,"TRUE"
"NV","WD","GW","IN",NA,"dixie valley power partnership",NA,NA,"58075",NA,NA,NA,NA,NA,NA,NA,NA,NA,NA,NA,NA,NA,NA,"128",NA,NA,NA,"CH",NA,NA,NA,NA,NA,"39.937044999999998","-117.89090899999999",NA,NA,NA,NA,NA,NA,NA,NA,NA,NA,NA,NA,NA,NA,NA,NA,NA,NA,NA,"TRUE"
"NV","WD","GW","IN",NA,"dodge flat solar limited liability corporation",NA,NA,"85243",NA,NA,NA,NA,NA,NA,NA,NA,NA,NA,NA,NA,NA,NA,"82",NA,NA,NA,"WA",NA,NA,NA,NA,NA,"39.661667000000001","-119.3436",NA,NA,NA,NA,NA,NA,NA,NA,NA,NA,NA,NA,NA,NA,NA,NA,NA,NA,NA,"TRUE"
"NV","WD","GW","IN",NA,"douglas county s i d no 1",NA,NA,"53806","16033",NA,NA,NA,NA,NA,NA,NA,NA,NA,NA,NA,NA,NA,"105",NA,NA,NA,"DO",NA,NA,NA,NA,NA,"38.990290000000002","-119.662249",NA,NA,NA,NA,NA,NA,NA,NA,NA,NA,NA,NA,NA,NA,NA,NA,NA,NA,NA,"TRUE"
"NV","WD","GW","IN",NA,"duewel dennis b",NA,NA,"47124","12668",NA,NA,NA,NA,NA,NA,NA,NA,NA,NA,NA,NA,NA,"44",NA,NA,NA,"EL",NA,NA,NA,NA,NA,"40.944169000000002","-115.537578",NA,NA,NA,NA,NA,NA,NA,NA,NA,NA,NA,NA,NA,NA,NA,NA,NA,NA,NA,"TRUE"
"NV","WD","GW","IN",NA,"dyno nobel incorporated",NA,NA,"54497","17646",NA,NA,NA,NA,NA,"325920","2892",NA,NA,NA,NA,NA,NA,"61",NA,NA,NA,"LA",NA,NA,NA,NA,NA,"40.690454000000003","-116.866719",NA,NA,NA,NA,NA,NA,NA,NA,NA,NA,NA,NA,NA,NA,NA,NA,NA,NA,NA,"TRUE"
"NV","WD","GW","IN",NA,"e i dupont denemours",NA,NA,"43298","12982",NA,NA,NA,NA,NA,NA,NA,NA,NA,NA,NA,NA,NA,"50",NA,NA,NA,"EL",NA,NA,NA,NA,NA,"40.725892000000002","-116.054301",NA,NA,NA,NA,NA,NA,NA,NA,NA,NA,NA,NA,NA,NA,NA,NA,NA,NA,NA,"TRUE"
"NV","WD","SW","IN",NA,"egbert f scott",NA,NA,"V01585",NA,NA,NA,NA,NA,NA,NA,NA,NA,NA,NA,NA,NA,NA,"188",NA,NA,NA,"EL",NA,NA,NA,NA,NA,"41.168985999999997","-114.740809",NA,NA,NA,NA,NA,NA,NA,NA,NA,NA,NA,NA,NA,NA,NA,NA,NA,NA,NA,"TRUE"
"NV","WD","GW","IN",NA,"elko land and livestock company",NA,NA,"71431",NA,NA,NA,NA,NA,NA,NA,NA,NA,NA,NA,NA,NA,NA,"61",NA,NA,NA,"EU",NA,NA,NA,NA,NA,"40.748288000000002","-116.52763299999999",NA,NA,NA,NA,NA,NA,NA,NA,NA,NA,NA,NA,NA,NA,NA,NA,NA,NA,NA,"TRUE"
"NV","WD","GW","IN",NA,"empire mining company limited liability corporation",NA,NA,"25768","8042",NA,NA,NA,NA,NA,NA,NA,NA,NA,NA,NA,NA,NA,"22",NA,NA,NA,"WA",NA,NA,NA,NA,NA,"40.572386000000002","-119.332703",NA,NA,NA,NA,NA,NA,NA,NA,NA,NA,NA,NA,NA,NA,NA,NA,NA,NA,NA,"TRUE"
"NV","WD","GW","IN",NA,"enel stillwater limited liability corporation",NA,NA,"64302",NA,NA,NA,NA,NA,NA,NA,NA,NA,NA,NA,NA,NA,NA,"101",NA,NA,NA,"CH",NA,NA,NA,NA,NA,"39.546872999999998","-118.558029",NA,NA,NA,NA,NA,NA,NA,NA,NA,NA,NA,NA,NA,NA,NA,NA,NA,NA,NA,"TRUE"
"NV","WD","GW","IN",NA,"enel stillwater limited liability corporation",NA,NA,"64304",NA,NA,NA,NA,NA,NA,NA,NA,NA,NA,NA,NA,NA,NA,"101",NA,NA,NA,"CH",NA,NA,NA,NA,NA,"39.545996000000002","-118.555136",NA,NA,NA,NA,NA,NA,NA,NA,NA,NA,NA,NA,NA,NA,NA,NA,NA,NA,NA,"TRUE"
"NV","WD","GW","IN",NA,"enel stillwater limited liability corporation",NA,NA,"64306",NA,NA,NA,NA,NA,NA,NA,NA,NA,NA,NA,NA,NA,NA,"101",NA,NA,NA,"CH",NA,NA,NA,NA,NA,"39.543959000000001","-118.555677",NA,NA,NA,NA,NA,NA,NA,NA,NA,NA,NA,NA,NA,NA,NA,NA,NA,NA,NA,"TRUE"
"NV","WD","GW","IN",NA,"energy department us",NA,NA,"57375",NA,NA,NA,NA,NA,NA,NA,NA,NA,NA,NA,NA,NA,NA,"229",NA,NA,NA,"NY",NA,NA,NA,NA,NA,"36.792242999999999","-116.552763",NA,NA,NA,NA,NA,NA,NA,NA,NA,NA,NA,NA,NA,NA,NA,NA,NA,NA,NA,"TRUE"
"NV","WD","SW","IN",NA,"eureka nevada railway company",NA,NA,"V01816",NA,NA,NA,NA,NA,NA,NA,NA,NA,NA,NA,NA,NA,NA,"153",NA,NA,NA,"EU",NA,NA,NA,NA,NA,"39.516249999999999","-115.96051",NA,NA,NA,NA,NA,NA,NA,NA,NA,NA,NA,NA,NA,NA,NA,NA,NA,NA,NA,"TRUE"
"NV","WD","SW","IN",NA,"flanigan wood and lumber company",NA,NA,"1431","136",NA,NA,NA,NA,NA,NA,NA,NA,NA,NA,NA,NA,NA,"87",NA,NA,NA,"WA",NA,NA,NA,NA,NA,"39.458759999999998","-119.90615699999999",NA,NA,NA,NA,NA,NA,NA,NA,NA,NA,NA,NA,NA,NA,NA,NA,NA,NA,NA,"TRUE"
"NV","WD","GW","IN",NA,"fmc corporation",NA,NA,"54520","14782",NA,NA,NA,NA,NA,NA,NA,NA,NA,NA,NA,NA,NA,"61",NA,NA,NA,"LA",NA,NA,NA,NA,NA,"40.704661000000002","-116.88696299999999",NA,NA,NA,NA,NA,NA,NA,NA,NA,NA,NA,NA,NA,NA,NA,NA,NA,NA,NA,"TRUE"
"NV","WD","GW","IN",NA,"forster rudolph j and dorothy",NA,NA,"66724","19058",NA,NA,NA,NA,NA,NA,NA,NA,NA,NA,NA,NA,NA,"102",NA,NA,NA,"LY",NA,NA,NA,NA,NA,"39.429993000000003","-119.199404",NA,NA,NA,NA,NA,NA,NA,NA,NA,NA,NA,NA,NA,NA,NA,NA,NA,NA,NA,"TRUE"
"NV","WD","GW","IN",NA,"forty mile desert limited liability corporation",NA,NA,"80311",NA,NA,NA,NA,NA,NA,NA,NA,NA,NA,NA,NA,NA,NA,"77",NA,NA,NA,"CH",NA,NA,NA,NA,NA,"39.869751000000001","-119.13565800000001",NA,NA,NA,NA,NA,NA,NA,NA,NA,NA,NA,NA,NA,NA,NA,NA,NA,NA,NA,"TRUE"
"NV","WD","GW","IN",NA,"frehner construction company incorporated",NA,NA,"60312","16635",NA,NA,NA,NA,NA,NA,NA,NA,NA,NA,NA,NA,NA,"42",NA,NA,NA,"EL",NA,NA,NA,NA,NA,"41.064075000000003","-115.41439800000001",NA,NA,NA,NA,NA,NA,NA,NA,NA,NA,NA,NA,NA,NA,NA,NA,NA,NA,NA,"TRUE"
"NV","WD","GW","IN",NA,"gage village commercial development limited liability corporation and am gsr holdings limited liability corporation",NA,NA,"63420","17813",NA,NA,NA,NA,NA,NA,NA,NA,NA,NA,NA,NA,NA,"87",NA,NA,NA,"WA",NA,NA,NA,NA,NA,"39.520356","-119.776916",NA,NA,NA,NA,NA,NA,NA,NA,NA,NA,NA,NA,NA,NA,NA,NA,NA,NA,NA,"TRUE"
"NV","WD","GW","IN",NA,"gateway commerce center limited liability corporation",NA,NA,"86492",NA,NA,NA,NA,NA,NA,NA,NA,NA,NA,NA,NA,NA,NA,"101",NA,NA,NA,"LY",NA,NA,NA,NA,NA,"39.576248999999997","-119.09833999999999",NA,NA,NA,NA,NA,NA,NA,NA,NA,NA,NA,NA,NA,NA,NA,NA,NA,NA,NA,"TRUE"
"NV","WD","GW","IN",NA,"georgia pacific corporation",NA,NA,"56855","14449",NA,NA,NA,NA,NA,NA,NA,NA,NA,NA,NA,NA,NA,"216",NA,NA,NA,"CL",NA,NA,NA,NA,NA,"36.344059999999999","-114.9212",NA,NA,NA,NA,NA,NA,NA,NA,NA,NA,NA,NA,NA,NA,NA,NA,NA,NA,NA,"TRUE"
"NV","WD","GW","IN",NA,"gillespie frank r",NA,NA,"52474","14829",NA,NA,NA,NA,NA,NA,NA,NA,NA,NA,NA,NA,NA,"76",NA,NA,NA,"LY",NA,NA,NA,NA,NA,"39.606399000000003","-119.22133599999999",NA,NA,NA,NA,NA,NA,NA,NA,NA,NA,NA,NA,NA,NA,NA,NA,NA,NA,NA,"TRUE"
"NV","WD","GW","IN",NA,"golden sierra investments",NA,NA,"83301",NA,NA,NA,NA,NA,NA,NA,NA,NA,NA,NA,NA,NA,NA,"103",NA,NA,NA,"LY",NA,NA,NA,NA,NA,"39.232813","-119.572028",NA,NA,NA,NA,NA,NA,NA,NA,NA,NA,NA,NA,NA,NA,NA,NA,NA,NA,NA,"TRUE"
"NV","WD","GW","IN",NA,"golden sierra investments limited liability corporation",NA,NA,"67883","17686",NA,NA,NA,NA,NA,NA,NA,NA,NA,NA,NA,NA,NA,"103",NA,NA,NA,"LY",NA,NA,NA,NA,NA,"39.232697999999999","-119.57191400000001",NA,NA,NA,NA,NA,NA,NA,NA,NA,NA,NA,NA,NA,NA,NA,NA,NA,NA,NA,"TRUE"
"NV","WD","GW","IN",NA,"golden sierra investments limited liability corporation",NA,NA,"82000",NA,NA,NA,NA,NA,NA,NA,NA,NA,NA,NA,NA,NA,NA,"103",NA,NA,NA,"LY",NA,NA,NA,NA,NA,"39.232765000000001","-119.57105",NA,NA,NA,NA,NA,NA,NA,NA,NA,NA,NA,NA,NA,NA,NA,NA,NA,NA,NA,"TRUE"
"NV","WD","GW","IN",NA,"goldie ronald allan",NA,NA,"43564",NA,NA,NA,NA,NA,NA,NA,NA,NA,NA,NA,NA,NA,NA,"49",NA,NA,NA,"EL",NA,NA,NA,NA,NA,"40.807304999999999","-115.780282",NA,NA,NA,NA,NA,NA,NA,NA,NA,NA,NA,NA,NA,NA,NA,NA,NA,NA,NA,"TRUE"
"NV","WD","WW","IN",NA,"gornowich sand and gravel incorporated",NA,NA,"24396","8066",NA,NA,NA,NA,NA,NA,NA,NA,NA,NA,NA,NA,NA,"167",NA,NA,NA,"CL",NA,NA,NA,NA,NA,"35.935811000000001","-114.85646300000001",NA,NA,NA,NA,NA,NA,NA,NA,NA,NA,NA,NA,NA,NA,NA,NA,NA,NA,NA,"TRUE"
"NV","WD","GW","IN",NA,"grand slam enterprises limited liability corporation",NA,NA,"66965","18137",NA,NA,NA,NA,NA,NA,NA,NA,NA,NA,NA,NA,NA,"83",NA,NA,NA,"WA",NA,NA,NA,NA,NA,"39.524296999999997","-119.626138",NA,NA,NA,NA,NA,NA,NA,NA,NA,NA,NA,NA,NA,NA,NA,NA,NA,NA,NA,"TRUE"
"NV","WD","GW","IN",NA,"grand slam enterprises limited liability corporation",NA,NA,"66729",NA,NA,NA,NA,NA,NA,NA,NA,NA,NA,NA,NA,NA,NA,"83",NA,NA,NA,"WA",NA,NA,NA,NA,NA,"39.524296999999997","-119.626138",NA,NA,NA,NA,NA,NA,NA,NA,NA,NA,NA,NA,NA,NA,NA,NA,NA,NA,NA,"TRUE"
"NV","WD","GW","IN",NA,"granite construction company",NA,NA,"69039","19043",NA,NA,NA,NA,NA,NA,NA,NA,NA,NA,NA,NA,NA,"103",NA,NA,NA,"LY",NA,NA,NA,NA,NA,"39.232697999999999","-119.57191400000001",NA,NA,NA,NA,NA,NA,NA,NA,NA,NA,NA,NA,NA,NA,NA,NA,NA,NA,NA,"TRUE"
"NV","WD","SW","IN",NA,"granite construction company",NA,NA,"77481","19157",NA,NA,NA,NA,NA,NA,NA,NA,NA,NA,NA,NA,NA,"83",NA,NA,NA,"WA",NA,NA,NA,NA,NA,"39.511879","-119.67021",NA,NA,NA,NA,NA,NA,NA,NA,NA,NA,NA,NA,NA,NA,NA,NA,NA,NA,NA,"TRUE"
"NV","WD","SW","IN",NA,"granite construction company",NA,NA,"77482","19158",NA,NA,NA,NA,NA,NA,NA,NA,NA,NA,NA,NA,NA,"83",NA,NA,NA,"WA",NA,NA,NA,NA,NA,"39.511879","-119.67021",NA,NA,NA,NA,NA,NA,NA,NA,NA,NA,NA,NA,NA,NA,NA,NA,NA,NA,NA,"TRUE"
"NV","WD","SW","IN",NA,"granite construction company",NA,NA,"77483","19159",NA,NA,NA,NA,NA,NA,NA,NA,NA,NA,NA,NA,NA,"83",NA,NA,NA,"WA",NA,NA,NA,NA,NA,"39.511879","-119.67021",NA,NA,NA,NA,NA,NA,NA,NA,NA,NA,NA,NA,NA,NA,NA,NA,NA,NA,NA,"TRUE"
"NV","WD","SW","IN",NA,"granite construction company",NA,NA,"77486",NA,NA,NA,NA,NA,NA,NA,NA,NA,NA,NA,NA,NA,NA,"83",NA,NA,NA,"WA",NA,NA,NA,NA,NA,"39.511879","-119.67021",NA,NA,NA,NA,NA,NA,NA,NA,NA,NA,NA,NA,NA,NA,NA,NA,NA,NA,NA,"TRUE"
"NV","WD","SW","IN",NA,"granite construction company",NA,NA,"77487","19160",NA,NA,NA,NA,NA,NA,NA,NA,NA,NA,NA,NA,NA,"83",NA,NA,NA,"WA",NA,NA,NA,NA,NA,"39.509444000000002","-119.662778",NA,NA,NA,NA,NA,NA,NA,NA,NA,NA,NA,NA,NA,NA,NA,NA,NA,NA,NA,"TRUE"
"NV","WD","GW","IN",NA,"granite construction company",NA,NA,"78031",NA,NA,NA,NA,NA,NA,NA,NA,NA,NA,NA,NA,NA,NA,"83",NA,NA,NA,"WA",NA,NA,NA,NA,NA,"39.512650999999998","-119.66076099999999",NA,NA,NA,NA,NA,NA,NA,NA,NA,NA,NA,NA,NA,NA,NA,NA,NA,NA,NA,"TRUE"
"NV","WD","GW","IN",NA,"granite construction company",NA,NA,"78032",NA,NA,NA,NA,NA,NA,NA,NA,NA,NA,NA,NA,NA,NA,"83",NA,NA,NA,"WA",NA,NA,NA,NA,NA,"39.512650999999998","-119.66076099999999",NA,NA,NA,NA,NA,NA,NA,NA,NA,NA,NA,NA,NA,NA,NA,NA,NA,NA,NA,"TRUE"
"NV","WD","SW","IN",NA,"granite construction company",NA,NA,"78649",NA,NA,NA,NA,NA,NA,NA,NA,NA,NA,NA,NA,NA,NA,"83",NA,NA,NA,"WA",NA,NA,NA,NA,NA,"39.511879","-119.67021",NA,NA,NA,NA,NA,NA,NA,NA,NA,NA,NA,NA,NA,NA,NA,NA,NA,NA,NA,"TRUE"
"NV","WD","SW","IN",NA,"granite construction company",NA,NA,"78721","19161",NA,NA,NA,NA,NA,NA,NA,NA,NA,NA,NA,NA,NA,"83",NA,NA,NA,"WA",NA,NA,NA,NA,NA,"39.511879","-119.67021",NA,NA,NA,NA,NA,NA,NA,NA,NA,NA,NA,NA,NA,NA,NA,NA,NA,NA,NA,"TRUE"
"NV","WD","GW","IN",NA,"granite construction company",NA,NA,"80073","20644",NA,NA,NA,NA,NA,NA,NA,NA,NA,NA,NA,NA,NA,"103",NA,NA,NA,"LY",NA,NA,NA,NA,NA,"39.236916999999998","-119.58266",NA,NA,NA,NA,NA,NA,NA,NA,NA,NA,NA,NA,NA,NA,NA,NA,NA,NA,NA,"TRUE"
"NV","WD","GW","IN",NA,"granite construction company",NA,NA,"80074","20500",NA,NA,NA,NA,NA,NA,NA,NA,NA,NA,NA,NA,NA,"103",NA,NA,NA,"LY",NA,NA,NA,NA,NA,"39.235556000000003","-119.577304",NA,NA,NA,NA,NA,NA,NA,NA,NA,NA,NA,NA,NA,NA,NA,NA,NA,NA,NA,"TRUE"
"NV","WD","GW","IN",NA,"granite construction company",NA,NA,"80075","20501",NA,NA,NA,NA,NA,NA,NA,NA,NA,NA,NA,NA,NA,"103",NA,NA,NA,"LY",NA,NA,NA,NA,NA,"39.235556000000003","-119.577304",NA,NA,NA,NA,NA,NA,NA,NA,NA,NA,NA,NA,NA,NA,NA,NA,NA,NA,NA,"TRUE"
"NV","WD","GW","IN",NA,"granite construction company",NA,NA,"80076","20502",NA,NA,NA,NA,NA,NA,NA,NA,NA,NA,NA,NA,NA,"103",NA,NA,NA,"LY",NA,NA,NA,NA,NA,"39.235556000000003","-119.577304",NA,NA,NA,NA,NA,NA,NA,NA,NA,NA,NA,NA,NA,NA,NA,NA,NA,NA,NA,"TRUE"
"NV","WD","GW","IN",NA,"granite construction company",NA,NA,"85169","20503",NA,NA,NA,NA,NA,NA,NA,NA,NA,NA,NA,NA,NA,"103",NA,NA,NA,"LY",NA,NA,NA,NA,NA,"39.235556000000003","-119.577304",NA,NA,NA,NA,NA,NA,NA,NA,NA,NA,NA,NA,NA,NA,NA,NA,NA,NA,NA,"TRUE"
"NV","WD","GW","IN",NA,"graymont western us incorporated",NA,NA,"63441","18189",NA,NA,NA,NA,NA,NA,NA,NA,NA,NA,NA,NA,NA,"70",NA,NA,NA,"HU",NA,NA,NA,NA,NA,"40.969461000000003","-117.485407",NA,NA,NA,NA,NA,NA,NA,NA,NA,NA,NA,NA,NA,NA,NA,NA,NA,NA,NA,"TRUE"
"NV","WD","GW","IN",NA,"greenleaf auto recyclers limited liability corporation",NA,NA,"81522","19805",NA,NA,NA,NA,NA,NA,NA,NA,NA,NA,NA,NA,NA,"212",NA,NA,NA,"CL",NA,NA,NA,NA,NA,"36.250909","-115.075271",NA,NA,NA,NA,NA,NA,NA,NA,NA,NA,NA,NA,NA,NA,NA,NA,NA,NA,NA,"TRUE"
"NV","WD","GW","IN",NA,"guisti inv harvey thompson",NA,NA,"41825","18945",NA,NA,NA,NA,NA,NA,NA,NA,NA,NA,NA,NA,NA,"87",NA,NA,NA,"WA",NA,NA,NA,NA,NA,"39.390489000000002","-119.755937",NA,NA,NA,NA,NA,NA,NA,NA,NA,NA,NA,NA,NA,NA,NA,NA,NA,NA,NA,"TRUE"
"NV","WD","GW","IN",NA,"guisti inv harvey thompson",NA,NA,"63534","18776",NA,NA,NA,NA,NA,NA,NA,NA,NA,NA,NA,NA,NA,"87",NA,NA,NA,"WA",NA,NA,NA,NA,NA,"39.392328999999997","-119.753607",NA,NA,NA,NA,NA,NA,NA,NA,NA,NA,NA,NA,NA,NA,NA,NA,NA,NA,NA,"TRUE"
"NV","WD","GW","IN",NA,"harney rock and paving company",NA,NA,"50937","13181",NA,NA,NA,NA,NA,NA,NA,NA,NA,NA,NA,NA,NA,"49",NA,NA,NA,"EL",NA,NA,NA,NA,NA,"40.909996999999997","-115.67312",NA,NA,NA,NA,NA,NA,NA,NA,NA,NA,NA,NA,NA,NA,NA,NA,NA,NA,NA,"TRUE"
"NV","WD","GW","IN",NA,"homestretch geothermal 2010 limited liability corporation",NA,NA,"47644","15165",NA,NA,NA,NA,NA,NA,NA,NA,NA,NA,NA,NA,NA,"108",NA,NA,NA,"LY",NA,NA,NA,NA,NA,"39.163693000000002","-119.178606",NA,NA,NA,NA,NA,NA,NA,NA,NA,NA,NA,NA,NA,NA,NA,NA,NA,NA,NA,"TRUE"
"NV","WD","GW","IN",NA,"homestretch geothermal 2010 limited liability corporation",NA,NA,"73999",NA,NA,NA,NA,NA,NA,NA,NA,NA,NA,NA,NA,NA,NA,"108",NA,NA,NA,"LY",NA,NA,NA,NA,NA,"39.163170999999998","-119.180499",NA,NA,NA,NA,NA,NA,NA,NA,NA,NA,NA,NA,NA,NA,NA,NA,NA,NA,NA,"TRUE"
"NV","WD","GW","IN",NA,"homestretch geothermal 2010 limited liability corporation",NA,NA,"74000",NA,NA,NA,NA,NA,NA,NA,NA,NA,NA,NA,NA,NA,NA,"108",NA,NA,NA,"LY",NA,NA,NA,NA,NA,"39.163170999999998","-119.180499",NA,NA,NA,NA,NA,NA,NA,NA,NA,NA,NA,NA,NA,NA,NA,NA,NA,NA,NA,"TRUE"
"NV","WD","GW","IN",NA,"homestretch geothermal 2010 limited liability corporation",NA,NA,"74002",NA,NA,NA,NA,NA,NA,NA,NA,NA,NA,NA,NA,NA,NA,"108",NA,NA,NA,"LY",NA,NA,NA,NA,NA,"39.163170999999998","-119.180499",NA,NA,NA,NA,NA,NA,NA,NA,NA,NA,NA,NA,NA,NA,NA,NA,NA,NA,NA,"TRUE"
"NV","WD","GW","IN",NA,"homestretch geothermal 2010 limited liability corporation",NA,NA,"74005",NA,NA,NA,NA,NA,NA,NA,NA,NA,NA,NA,NA,NA,NA,"108",NA,NA,NA,"LY",NA,NA,NA,NA,NA,"39.163693000000002","-119.178606",NA,NA,NA,NA,NA,NA,NA,NA,NA,NA,NA,NA,NA,NA,NA,NA,NA,NA,NA,"TRUE"
"NV","WD","GW","IN",NA,"homestretch geothermal 2010 limited liability corporation",NA,NA,"74007",NA,NA,NA,NA,NA,NA,NA,NA,NA,NA,NA,NA,NA,NA,"108",NA,NA,NA,"LY",NA,NA,NA,NA,NA,"39.163693000000002","-119.178606",NA,NA,NA,NA,NA,NA,NA,NA,NA,NA,NA,NA,NA,NA,NA,NA,NA,NA,NA,"TRUE"
"NV","WD","GW","IN",NA,"hospah coal company",NA,NA,"78831",NA,NA,NA,NA,NA,NA,NA,NA,NA,NA,NA,NA,NA,NA,"60",NA,NA,NA,"LA",NA,NA,NA,NA,NA,"40.555115000000001","-116.61672799999999",NA,NA,NA,NA,NA,NA,NA,NA,NA,NA,NA,NA,NA,NA,NA,NA,NA,NA,NA,"TRUE"
"NV","WD","GW","IN",NA,"hss ii limited liability corporation",NA,NA,"82973",NA,NA,NA,NA,NA,NA,NA,NA,NA,NA,NA,NA,NA,NA,"36",NA,NA,NA,"EL",NA,NA,NA,NA,NA,"41.438060999999998","-116.15007",NA,NA,NA,NA,NA,NA,NA,NA,NA,NA,NA,NA,NA,NA,NA,NA,NA,NA,NA,"TRUE"
"NV","WD","GW","IN",NA,"hss ii limited liability corporation",NA,NA,"82974",NA,NA,NA,NA,NA,NA,NA,NA,NA,NA,NA,NA,NA,NA,"36",NA,NA,NA,"EL",NA,NA,NA,NA,NA,"41.440486","-116.155169",NA,NA,NA,NA,NA,NA,NA,NA,NA,NA,NA,NA,NA,NA,NA,NA,NA,NA,NA,"TRUE"
"NV","WD","GW","IN",NA,"hss ii limited liability corporation",NA,NA,"82975",NA,NA,NA,NA,NA,NA,NA,NA,NA,NA,NA,NA,NA,NA,"36",NA,NA,NA,"EL",NA,NA,NA,NA,NA,"41.435918000000001","-116.134215",NA,NA,NA,NA,NA,NA,NA,NA,NA,NA,NA,NA,NA,NA,NA,NA,NA,NA,NA,"TRUE"
"NV","WD","GW","IN",NA,"hss ii limited liability corporation",NA,NA,"80549",NA,NA,NA,NA,NA,NA,NA,NA,NA,NA,NA,NA,NA,NA,"36",NA,NA,NA,"EL",NA,NA,NA,NA,NA,"41.440283000000001","-116.142019",NA,NA,NA,NA,NA,NA,NA,NA,NA,NA,NA,NA,NA,NA,NA,NA,NA,NA,NA,"TRUE"
"NV","WD","GW","IN",NA,"hss ii limited liability corporation",NA,NA,"80550",NA,NA,NA,NA,NA,NA,NA,NA,NA,NA,NA,NA,NA,NA,"36",NA,NA,NA,"EL",NA,NA,NA,NA,NA,"41.444685","-116.149159",NA,NA,NA,NA,NA,NA,NA,NA,NA,NA,NA,NA,NA,NA,NA,NA,NA,NA,NA,"TRUE"
"NV","WD","GW","IN",NA,"humboldt county",NA,NA,"77287",NA,NA,NA,NA,NA,NA,NA,NA,NA,NA,NA,NA,NA,NA,"69",NA,NA,NA,"HU",NA,NA,NA,NA,NA,"41.029553","-117.756045",NA,NA,NA,NA,NA,NA,NA,NA,NA,NA,NA,NA,NA,NA,NA,NA,NA,NA,NA,"TRUE"
"NV","WD","GW","IN",NA,"humboldt county",NA,NA,"81778",NA,NA,NA,NA,NA,NA,NA,NA,NA,NA,NA,NA,NA,NA,"64",NA,NA,NA,"HU",NA,NA,NA,NA,NA,"41.137712000000001","-117.04822",NA,NA,NA,NA,NA,NA,NA,NA,NA,NA,NA,NA,NA,NA,NA,NA,NA,NA,NA,"TRUE"
"NV","WD","GW","IN",NA,"humboldt county",NA,NA,"81779",NA,NA,NA,NA,NA,NA,NA,NA,NA,NA,NA,NA,NA,NA,"66",NA,NA,NA,"HU",NA,NA,NA,NA,NA,"41.075572000000001","-117.27462199999999",NA,NA,NA,NA,NA,NA,NA,NA,NA,NA,NA,NA,NA,NA,NA,NA,NA,NA,NA,"TRUE"
"NV","WD","GW","IN",NA,"humboldt county board of comm",NA,NA,"56840",NA,NA,NA,NA,NA,NA,NA,NA,NA,NA,NA,NA,NA,NA,"31",NA,NA,NA,"HU",NA,NA,NA,NA,NA,"40.950982000000003","-118.158466",NA,NA,NA,NA,NA,NA,NA,NA,NA,NA,NA,NA,NA,NA,NA,NA,NA,NA,NA,"TRUE"
"NV","WD","GW","IN",NA,"j and m trucking incorporated",NA,NA,"77967",NA,NA,NA,NA,NA,NA,NA,NA,NA,NA,NA,NA,NA,NA,"179",NA,NA,NA,"WP",NA,NA,NA,NA,NA,"39.277619999999999","-114.837186",NA,NA,NA,NA,NA,NA,NA,NA,NA,NA,NA,NA,NA,NA,NA,NA,NA,NA,NA,"TRUE"
"NV","WD","GW","IN",NA,"j and m trucking incorporated",NA,NA,"74925",NA,NA,NA,NA,NA,NA,NA,NA,NA,NA,NA,NA,NA,NA,"179",NA,NA,NA,"WP",NA,NA,NA,NA,NA,"39.277619999999999","-114.837186",NA,NA,NA,NA,NA,NA,NA,NA,NA,NA,NA,NA,NA,NA,NA,NA,NA,NA,NA,"TRUE"
"NV","WD","GW","IN",NA,"jason corporation",NA,NA,"82935",NA,NA,NA,NA,NA,NA,NA,NA,NA,NA,NA,NA,NA,NA,"108",NA,NA,NA,"LY",NA,NA,NA,NA,NA,"38.939568000000001","-119.114529",NA,NA,NA,NA,NA,NA,NA,NA,NA,NA,NA,NA,NA,NA,NA,NA,NA,NA,NA,"TRUE"
"NV","WD","GW","IN",NA,"kennametal incorporated",NA,NA,"24769","7943",NA,NA,NA,NA,NA,NA,NA,NA,NA,NA,NA,NA,NA,"101",NA,NA,NA,"CH",NA,NA,NA,NA,NA,"39.635071000000003","-118.79057299999999",NA,NA,NA,NA,NA,NA,NA,NA,NA,NA,NA,NA,NA,NA,NA,NA,NA,NA,NA,"TRUE"
"NV","WD","GW","IN",NA,"kennametal incorporated",NA,NA,"28229","9966",NA,NA,NA,NA,NA,NA,NA,NA,NA,NA,NA,NA,NA,"101",NA,NA,NA,"CH",NA,NA,NA,NA,NA,"39.507477999999999","-118.772047",NA,NA,NA,NA,NA,NA,NA,NA,NA,NA,NA,NA,NA,NA,NA,NA,NA,NA,NA,"TRUE"
"NV","WD","GW","IN",NA,"kennametal incorporated",NA,NA,"41258","12938",NA,NA,NA,NA,NA,NA,NA,NA,NA,NA,NA,NA,NA,"101",NA,NA,NA,"CH",NA,NA,NA,NA,NA,"39.507477999999999","-118.772047",NA,NA,NA,NA,NA,NA,NA,NA,NA,NA,NA,NA,NA,NA,NA,NA,NA,NA,NA,"TRUE"
"NV","WD","SW","IN",NA,"kennecott nevada copper company",NA,NA,"42101","12172",NA,NA,NA,NA,NA,NA,NA,NA,NA,NA,NA,NA,NA,"179",NA,NA,NA,"WP",NA,NA,NA,NA,NA,"39.490456000000002","-114.68236400000001",NA,NA,NA,NA,NA,NA,NA,NA,NA,NA,NA,NA,NA,NA,NA,NA,NA,NA,NA,"TRUE"
"NV","WD","SW","IN",NA,"kennecott nevada copper company",NA,NA,"42102","12173",NA,NA,NA,NA,NA,NA,NA,NA,NA,NA,NA,NA,NA,"179",NA,NA,NA,"WP",NA,NA,NA,NA,NA,"39.463608999999998","-114.70147799999999",NA,NA,NA,NA,NA,NA,NA,NA,NA,NA,NA,NA,NA,NA,NA,NA,NA,NA,NA,"TRUE"
"NV","WD","SW","IN",NA,"kennecott nevada copper company",NA,NA,"42103","12174",NA,NA,NA,NA,NA,NA,NA,NA,NA,NA,NA,NA,NA,"179",NA,NA,NA,"WP",NA,NA,NA,NA,NA,"39.498980000000003","-114.68513799999999",NA,NA,NA,NA,NA,NA,NA,NA,NA,NA,NA,NA,NA,NA,NA,NA,NA,NA,NA,"TRUE"
"NV","WD","SW","IN",NA,"kennecott nevada copper company",NA,NA,"42104","12175",NA,NA,NA,NA,NA,NA,NA,NA,NA,NA,NA,NA,NA,"179",NA,NA,NA,"WP",NA,NA,NA,NA,NA,"39.328977000000002","-114.636117",NA,NA,NA,NA,NA,NA,NA,NA,NA,NA,NA,NA,NA,NA,NA,NA,NA,NA,NA,"TRUE"
"NV","WD","SW","IN",NA,"kennecott nevada copper company",NA,NA,"42106","12177",NA,NA,NA,NA,NA,NA,NA,NA,NA,NA,NA,NA,NA,"179",NA,NA,NA,"WP",NA,NA,NA,NA,NA,"39.412666999999999","-114.779473",NA,NA,NA,NA,NA,NA,NA,NA,NA,NA,NA,NA,NA,NA,NA,NA,NA,NA,NA,"TRUE"
"NV","WD","SW","IN",NA,"kennecott nevada copper company",NA,NA,"60489",NA,NA,NA,NA,NA,NA,NA,NA,NA,NA,NA,NA,NA,NA,"179",NA,NA,NA,"WP",NA,NA,NA,NA,NA,"39.463608999999998","-114.70147799999999",NA,NA,NA,NA,NA,NA,NA,NA,NA,NA,NA,NA,NA,NA,NA,NA,NA,NA,NA,"TRUE"
"NV","WD","SW","IN",NA,"kennecott nevada copper company",NA,NA,"60492",NA,NA,NA,NA,NA,NA,NA,NA,NA,NA,NA,NA,NA,NA,"179",NA,NA,NA,"WP",NA,NA,NA,NA,NA,"39.401732000000003","-114.63686300000001",NA,NA,NA,NA,NA,NA,NA,NA,NA,NA,NA,NA,NA,NA,NA,NA,NA,NA,NA,"TRUE"
"NV","WD","SW","IN",NA,"kennecott nevada copper company",NA,NA,"60493",NA,NA,NA,NA,NA,NA,NA,NA,NA,NA,NA,NA,NA,NA,"179",NA,NA,NA,"WP",NA,NA,NA,NA,NA,"39.349587999999997","-114.648205",NA,NA,NA,NA,NA,NA,NA,NA,NA,NA,NA,NA,NA,NA,NA,NA,NA,NA,NA,"TRUE"
"NV","WD","SW","IN",NA,"kennecott nevada copper company",NA,NA,"60494",NA,NA,NA,NA,NA,NA,NA,NA,NA,NA,NA,NA,NA,NA,"179",NA,NA,NA,"WP",NA,NA,NA,NA,NA,"39.463391000000001","-114.65469400000001",NA,NA,NA,NA,NA,NA,NA,NA,NA,NA,NA,NA,NA,NA,NA,NA,NA,NA,NA,"TRUE"
"NV","WD","GW","IN",NA,"kg mining bald mountain incorporated",NA,NA,"89698T",NA,NA,NA,NA,NA,NA,NA,NA,NA,NA,NA,NA,NA,NA,"175",NA,NA,NA,"WP",NA,NA,NA,NA,NA,"39.831389000000001","115.391944",NA,NA,NA,NA,NA,NA,NA,NA,NA,NA,NA,NA,NA,NA,NA,NA,NA,NA,NA,"TRUE"
"NV","WD",NA,NA,NA,"kinder morgan",NA,NA,NA,NA,NA,NA,NA,NA,NA,"493190","4226",NA,NA,NA,NA,NA,NA,NA,NA,NA,NA,NA,NA,NA,NA,NA,NA,NA,NA,NA,NA,NA,NA,NA,NA,NA,NA,NA,NA,NA,NA,NA,NA,NA,NA,NA,NA,NA,"TRUE"
"NV","WD",NA,NA,NA,"kjk waste management limited liability corporation",NA,NA,NA,NA,NA,NA,NA,NA,NA,"562212","4953",NA,NA,NA,NA,NA,NA,NA,NA,NA,NA,NA,NA,NA,NA,NA,NA,NA,NA,NA,NA,NA,NA,NA,NA,NA,NA,NA,NA,NA,NA,NA,NA,NA,NA,NA,NA,NA,"TRUE"
"NV","WD","GW","IN",NA,"l s day incorporated",NA,NA,"27704","9363",NA,NA,NA,NA,NA,NA,NA,NA,NA,NA,NA,NA,NA,"107",NA,NA,NA,"LY",NA,NA,NA,NA,NA,"38.706893000000001","-119.31797400000001",NA,NA,NA,NA,NA,NA,NA,NA,NA,NA,NA,NA,NA,NA,NA,NA,NA,NA,NA,"TRUE"
"NV","WD","GW","IN",NA,"lake mountain mining limited liability corporation",NA,NA,"85241",NA,NA,NA,NA,NA,NA,NA,NA,NA,NA,NA,NA,NA,NA,"82",NA,NA,NA,"WA",NA,NA,NA,NA,NA,"39.670278000000003","-119.4469",NA,NA,NA,NA,NA,NA,NA,NA,NA,NA,NA,NA,NA,NA,NA,NA,NA,NA,NA,"TRUE"
"NV","WD","GW","IN",NA,"lander county airport authority",NA,NA,"50451",NA,NA,NA,NA,NA,NA,NA,NA,NA,NA,NA,NA,NA,NA,"59",NA,NA,NA,"LA",NA,NA,NA,NA,NA,"40.609273999999999","-116.871267",NA,NA,NA,NA,NA,NA,NA,NA,NA,NA,NA,NA,NA,NA,NA,NA,NA,NA,NA,"TRUE"
"NV","WD","GW","IN",NA,"las vegas paving corporation",NA,NA,"60224","15677",NA,NA,NA,NA,NA,NA,NA,NA,NA,NA,NA,NA,NA,"212",NA,NA,NA,"CL",NA,NA,NA,NA,NA,"36.009833","-115.234341",NA,NA,NA,NA,NA,NA,NA,NA,NA,NA,NA,NA,NA,NA,NA,NA,NA,NA,NA,"TRUE"
"NV","WD","GW","IN",NA,"las vegas paving corporation",NA,NA,"60225","15678",NA,NA,NA,NA,NA,NA,NA,NA,NA,NA,NA,NA,NA,"212",NA,NA,NA,"CL",NA,NA,NA,NA,NA,"36.009836999999997","-115.233253",NA,NA,NA,NA,NA,NA,NA,NA,NA,NA,NA,NA,NA,NA,NA,NA,NA,NA,NA,"TRUE"
"NV","WD","GW","IN",NA,"las vegas paving corporation",NA,NA,"63191","16117",NA,NA,NA,NA,NA,NA,NA,NA,NA,NA,NA,NA,NA,"212",NA,NA,NA,"CL",NA,NA,NA,NA,NA,"36.009833","-115.234341",NA,NA,NA,NA,NA,NA,NA,NA,NA,NA,NA,NA,NA,NA,NA,NA,NA,NA,NA,"TRUE"
"NV","WD","GW","IN",NA,"las vegas paving corporation",NA,NA,"63803","16118",NA,NA,NA,NA,NA,NA,NA,NA,NA,NA,NA,NA,NA,"212",NA,NA,NA,"CL",NA,NA,NA,NA,NA,"36.009833","-115.234341",NA,NA,NA,NA,NA,NA,NA,NA,NA,NA,NA,NA,NA,NA,NA,NA,NA,NA,NA,"TRUE"
"NV","WD","GW","IN",NA,"las vegas paving corporation",NA,NA,"64374","16119",NA,NA,NA,NA,NA,NA,NA,NA,NA,NA,NA,NA,NA,"212",NA,NA,NA,"CL",NA,NA,NA,NA,NA,"36.009833","-115.234341",NA,NA,NA,NA,NA,NA,NA,NA,NA,NA,NA,NA,NA,NA,NA,NA,NA,NA,NA,"TRUE"
"NV","WD","GW","IN",NA,"las vegas paving corporation",NA,NA,"71385","19287",NA,NA,NA,NA,NA,NA,NA,NA,NA,NA,NA,NA,NA,"212",NA,NA,NA,"CL",NA,NA,NA,NA,NA,"36.009833","-115.234341",NA,NA,NA,NA,NA,NA,NA,NA,NA,NA,NA,NA,NA,NA,NA,NA,NA,NA,NA,"TRUE"
"NV","WD",NA,NA,NA,"las vegas paving corporation blue diamond",NA,NA,"60224",NA,NA,NA,NA,NA,NA,"237310","1611",NA,NA,NA,NA,NA,NA,NA,NA,NA,NA,NA,NA,NA,NA,NA,NA,NA,NA,NA,NA,NA,NA,NA,NA,NA,NA,NA,NA,NA,NA,NA,NA,NA,NA,NA,NA,NA,"TRUE"
"NV","WD",NA,NA,NA,"las vegas paving corporation lone mtn",NA,NA,"60224",NA,NA,NA,NA,NA,NA,"237310","1611",NA,NA,NA,NA,NA,NA,NA,NA,NA,NA,NA,NA,NA,NA,NA,NA,NA,NA,NA,NA,NA,NA,NA,NA,NA,NA,NA,NA,NA,NA,NA,NA,NA,NA,NA,NA,NA,"TRUE"
"NV","WD","GW","IN",NA,"las vegas valley water district",NA,NA,"21997","8278",NA,NA,NA,NA,NA,NA,NA,NA,NA,NA,NA,NA,NA,"164a",NA,NA,NA,"CL",NA,NA,NA,NA,NA,"35.776747","-115.320911",NA,NA,NA,NA,NA,NA,NA,NA,NA,NA,NA,NA,NA,NA,NA,NA,NA,NA,NA,"TRUE"
"NV","WD","GW","IN",NA,"lds",NA,NA,"50723","13381",NA,NA,NA,NA,NA,NA,NA,NA,NA,NA,NA,NA,NA,"219",NA,NA,NA,"CL",NA,NA,NA,NA,NA,"36.723467999999997","-114.709958",NA,NA,NA,NA,NA,NA,NA,NA,NA,NA,NA,NA,NA,NA,NA,NA,NA,NA,NA,"TRUE"
"NV","WD","GW","IN",NA,"lds",NA,NA,"50724","13382",NA,NA,NA,NA,NA,NA,NA,NA,NA,NA,NA,NA,NA,"219",NA,NA,NA,"CL",NA,NA,NA,NA,NA,"36.727389000000002","-114.72955899999999",NA,NA,NA,NA,NA,NA,NA,NA,NA,NA,NA,NA,NA,NA,NA,NA,NA,NA,NA,"TRUE"
"NV","WD","GW","IN",NA,"lds",NA,NA,"50725","13383",NA,NA,NA,NA,NA,NA,NA,NA,NA,NA,NA,NA,NA,"219",NA,NA,NA,"CL",NA,NA,NA,NA,NA,"36.727389000000002","-114.72955899999999",NA,NA,NA,NA,NA,NA,NA,NA,NA,NA,NA,NA,NA,NA,NA,NA,NA,NA,NA,"TRUE"
"NV","WD","GW","IN",NA,"lds",NA,NA,"50726","13384",NA,NA,NA,NA,NA,NA,NA,NA,NA,NA,NA,NA,NA,"219",NA,NA,NA,"CL",NA,NA,NA,NA,NA,"36.727389000000002","-114.72955899999999",NA,NA,NA,NA,NA,NA,NA,NA,NA,NA,NA,NA,NA,NA,NA,NA,NA,NA,NA,"TRUE"
"NV","WD","GW","IN",NA,"lds",NA,NA,"50727","13385",NA,NA,NA,NA,NA,NA,NA,NA,NA,NA,NA,NA,NA,"219",NA,NA,NA,"CL",NA,NA,NA,NA,NA,"36.727389000000002","-114.72955899999999",NA,NA,NA,NA,NA,NA,NA,NA,NA,NA,NA,NA,NA,NA,NA,NA,NA,NA,NA,"TRUE"
"NV","WD","GW","IN",NA,"lds",NA,NA,"50728","13386",NA,NA,NA,NA,NA,NA,NA,NA,NA,NA,NA,NA,NA,"219",NA,NA,NA,"CL",NA,NA,NA,NA,NA,"36.727389000000002","-114.72955899999999",NA,NA,NA,NA,NA,NA,NA,NA,NA,NA,NA,NA,NA,NA,NA,NA,NA,NA,NA,"TRUE"
"NV","WD","GW","IN",NA,"lds",NA,NA,"50729","13387",NA,NA,NA,NA,NA,NA,NA,NA,NA,NA,NA,NA,NA,"219",NA,NA,NA,"CL",NA,NA,NA,NA,NA,"36.727389000000002","-114.72955899999999",NA,NA,NA,NA,NA,NA,NA,NA,NA,NA,NA,NA,NA,NA,NA,NA,NA,NA,NA,"TRUE"
"NV","WD","GW","IN",NA,"lds",NA,NA,"50730","13388",NA,NA,NA,NA,NA,NA,NA,NA,NA,NA,NA,NA,NA,"219",NA,NA,NA,"CL",NA,NA,NA,NA,NA,"36.727389000000002","-114.72955899999999",NA,NA,NA,NA,NA,NA,NA,NA,NA,NA,NA,NA,NA,NA,NA,NA,NA,NA,NA,"TRUE"
"NV","WD","GW","IN",NA,"lds",NA,NA,"50731","13389",NA,NA,NA,NA,NA,NA,NA,NA,NA,NA,NA,NA,NA,"219",NA,NA,NA,"CL",NA,NA,NA,NA,NA,"36.723467999999997","-114.709958",NA,NA,NA,NA,NA,NA,NA,NA,NA,NA,NA,NA,NA,NA,NA,NA,NA,NA,NA,"TRUE"
"NV","WD","GW","IN",NA,"lds",NA,NA,"50732","13390",NA,NA,NA,NA,NA,NA,NA,NA,NA,NA,NA,NA,NA,"219",NA,NA,NA,"CL",NA,NA,NA,NA,NA,"36.722484999999999","-114.71464",NA,NA,NA,NA,NA,NA,NA,NA,NA,NA,NA,NA,NA,NA,NA,NA,NA,NA,NA,"TRUE"
"NV","WD","GW","IN",NA,"lds",NA,NA,"50733","13391",NA,NA,NA,NA,NA,NA,NA,NA,NA,NA,NA,NA,NA,"219",NA,NA,NA,"CL",NA,NA,NA,NA,NA,"36.722484999999999","-114.71464",NA,NA,NA,NA,NA,NA,NA,NA,NA,NA,NA,NA,NA,NA,NA,NA,NA,NA,NA,"TRUE"
"NV","WD","GW","IN",NA,"lewis clarence a and or clarvid arthur",NA,NA,"22949","7168",NA,NA,NA,NA,NA,NA,NA,NA,NA,NA,NA,NA,NA,"219",NA,NA,NA,"CL",NA,NA,NA,NA,NA,"36.735717999999999","-114.734048",NA,NA,NA,NA,NA,NA,NA,NA,NA,NA,NA,NA,NA,NA,NA,NA,NA,NA,NA,"TRUE"
"NV","WD","GW","IN",NA,"lincoln county",NA,NA,"87262",NA,NA,NA,NA,NA,NA,NA,NA,NA,NA,NA,NA,NA,NA,"204",NA,NA,NA,"LI",NA,NA,NA,NA,NA,"37.658925000000004","-114.123848",NA,NA,NA,NA,NA,NA,NA,NA,NA,NA,NA,NA,NA,NA,NA,NA,NA,NA,NA,"TRUE"
"NV","WD","GW","IN",NA,"los angeles city",NA,NA,"58575","15361",NA,NA,NA,NA,NA,NA,NA,NA,NA,NA,NA,NA,NA,"167",NA,NA,NA,"CL",NA,NA,NA,NA,NA,"35.801670000000001","-115.01334900000001",NA,NA,NA,NA,NA,NA,NA,NA,NA,NA,NA,NA,NA,NA,NA,NA,NA,NA,NA,"TRUE"
"NV","WD","GW","IN",NA,"los angeles city water and power",NA,NA,"49049","13039",NA,NA,NA,NA,NA,NA,NA,NA,NA,NA,NA,NA,NA,"167",NA,NA,NA,"CL",NA,NA,NA,NA,NA,"35.801670000000001","-115.01334900000001",NA,NA,NA,NA,NA,NA,NA,NA,NA,NA,NA,NA,NA,NA,NA,NA,NA,NA,NA,"TRUE"
"NV","WD","GW","IN",NA,"lucas stan",NA,NA,"88281",NA,NA,NA,NA,NA,NA,NA,NA,NA,NA,NA,NA,NA,NA,"83",NA,NA,NA,"WA",NA,NA,NA,NA,NA,"39.575299999999999","-119.5089",NA,NA,NA,NA,NA,NA,NA,NA,NA,NA,NA,NA,NA,NA,NA,NA,NA,NA,NA,"TRUE"
"NV","WD","GW","IN",NA,"lucas stan",NA,NA,"88282",NA,NA,NA,NA,NA,NA,NA,NA,NA,NA,NA,NA,NA,NA,"83",NA,NA,NA,"WA",NA,NA,NA,NA,NA,"39.574300000000001","-119.5108",NA,NA,NA,NA,NA,NA,NA,NA,NA,NA,NA,NA,NA,NA,NA,NA,NA,NA,NA,"TRUE"
"NV","WD","GW","IN",NA,"lucas stan",NA,NA,"88283",NA,NA,NA,NA,NA,NA,NA,NA,NA,NA,NA,NA,NA,NA,"83",NA,NA,NA,"WA",NA,NA,NA,NA,NA,"39.575299999999999","-119.5089",NA,NA,NA,NA,NA,NA,NA,NA,NA,NA,NA,NA,NA,NA,NA,NA,NA,NA,NA,"TRUE"
"NV","WD","GW","IN",NA,"lucas stan",NA,NA,"88284",NA,NA,NA,NA,NA,NA,NA,NA,NA,NA,NA,NA,NA,NA,"83",NA,NA,NA,"WA",NA,NA,NA,NA,NA,"39.574300000000001","-119.51078800000001",NA,NA,NA,NA,NA,NA,NA,NA,NA,NA,NA,NA,NA,NA,NA,NA,NA,NA,NA,"TRUE"
"NV","WD","GW","IN",NA,"lyon county",NA,NA,"19102","6053",NA,NA,NA,NA,NA,NA,NA,NA,NA,NA,NA,NA,NA,"107",NA,NA,NA,"LY",NA,NA,NA,NA,NA,"38.818989999999999","-119.329559",NA,NA,NA,NA,NA,NA,NA,NA,NA,NA,NA,NA,NA,NA,NA,NA,NA,NA,NA,"TRUE"
"NV","WD","GW","IN",NA,"makoil incorporated",NA,NA,"31188","10630",NA,NA,NA,NA,NA,NA,NA,NA,NA,NA,NA,NA,NA,"173b",NA,NA,NA,"NY",NA,NA,NA,NA,NA,"38.622459999999997","-115.64376",NA,NA,NA,NA,NA,NA,NA,NA,NA,NA,NA,NA,NA,NA,NA,NA,NA,NA,NA,"TRUE"
"NV","WD","GW","IN",NA,"mars petcare us incorporated",NA,NA,"60982","15962",NA,NA,NA,NA,NA,"311111","2047",NA,NA,NA,NA,NA,NA,"83",NA,NA,NA,"ST",NA,NA,NA,NA,NA,"39.558598000000003","-119.547764",NA,NA,NA,NA,NA,NA,NA,NA,NA,NA,NA,NA,NA,NA,NA,NA,NA,NA,NA,"TRUE"
"NV","WD","SW","IN",NA,"mcgill ruth con sewer and wtr gid",NA,NA,"43452","13026",NA,NA,NA,NA,NA,NA,NA,NA,NA,NA,NA,NA,NA,"207",NA,NA,NA,"WP",NA,NA,NA,NA,NA,"39.145215999999998","-114.973692",NA,NA,NA,NA,NA,NA,NA,NA,NA,NA,NA,NA,NA,NA,NA,NA,NA,NA,NA,"TRUE"
"NV","WD","SW","IN",NA,"mcgill ruth consol swr and wtr g i d",NA,NA,"43449","13023",NA,NA,NA,NA,NA,NA,NA,NA,NA,NA,NA,NA,NA,"207",NA,NA,NA,"WP",NA,NA,NA,NA,NA,"39.117449999999998","-114.944805",NA,NA,NA,NA,NA,NA,NA,NA,NA,NA,NA,NA,NA,NA,NA,NA,NA,NA,NA,"TRUE"
"NV","WD","SW","IN",NA,"mcgill ruth consol swr and wtr g i d",NA,NA,"43450","13024",NA,NA,NA,NA,NA,NA,NA,NA,NA,NA,NA,NA,NA,"207",NA,NA,NA,"WP",NA,NA,NA,NA,NA,"39.118350999999997","-114.94386",NA,NA,NA,NA,NA,NA,NA,NA,NA,NA,NA,NA,NA,NA,NA,NA,NA,NA,NA,"TRUE"
"NV","WD","SW","IN",NA,"mcgill ruth consol swr and wtr g i d",NA,NA,"43451","13025",NA,NA,NA,NA,NA,NA,NA,NA,NA,NA,NA,NA,NA,"207",NA,NA,NA,"WP",NA,NA,NA,NA,NA,"39.129590999999998","-114.956346",NA,NA,NA,NA,NA,NA,NA,NA,NA,NA,NA,NA,NA,NA,NA,NA,NA,NA,NA,"TRUE"
"NV","WD","SW","IN",NA,"mcgill ruth consolidated sewer",NA,NA,"43453","13027",NA,NA,NA,NA,NA,NA,NA,NA,NA,NA,NA,NA,NA,"207",NA,NA,NA,"WP",NA,NA,NA,NA,NA,"39.157245000000003","-114.965402",NA,NA,NA,NA,NA,NA,NA,NA,NA,NA,NA,NA,NA,NA,NA,NA,NA,NA,NA,"TRUE"
"NV","WD","SW","IN",NA,"mcgill ruth sewer and water gid",NA,NA,"43756","13030",NA,NA,NA,NA,NA,NA,NA,NA,NA,NA,NA,NA,NA,"207",NA,NA,NA,"WP",NA,NA,NA,NA,NA,"39.152405000000002","-114.971435",NA,NA,NA,NA,NA,NA,NA,NA,NA,NA,NA,NA,NA,NA,NA,NA,NA,NA,NA,"TRUE"
"NV","WD","GW","IN",NA,"meadows bank",NA,NA,"52898","14991",NA,NA,NA,NA,NA,NA,NA,NA,NA,NA,NA,NA,NA,"103",NA,NA,NA,"CC",NA,NA,NA,NA,NA,"39.175946000000003","-119.686939",NA,NA,NA,NA,NA,NA,NA,NA,NA,NA,NA,NA,NA,NA,NA,NA,NA,NA,NA,"TRUE"
"NV","WD","GW","IN",NA,"meadows bank",NA,NA,"52899","14992",NA,NA,NA,NA,NA,NA,NA,NA,NA,NA,NA,NA,NA,"103",NA,NA,NA,"CC",NA,NA,NA,NA,NA,"39.177908000000002","-119.687192",NA,NA,NA,NA,NA,NA,NA,NA,NA,NA,NA,NA,NA,NA,NA,NA,NA,NA,NA,"TRUE"
"NV","WD","GW","IN",NA,"meadows bank",NA,NA,"62112",NA,NA,NA,NA,NA,NA,NA,NA,NA,NA,NA,NA,NA,NA,"103",NA,NA,NA,"CC",NA,NA,NA,NA,NA,"39.176639999999999","-119.685563",NA,NA,NA,NA,NA,NA,NA,NA,NA,NA,NA,NA,NA,NA,NA,NA,NA,NA,NA,"TRUE"
"NV","WD","GW","IN",NA,"military department nevada",NA,NA,"45325","11141",NA,NA,NA,NA,NA,NA,NA,NA,NA,NA,NA,NA,NA,"092a",NA,NA,NA,"WA",NA,NA,NA,NA,NA,"39.674971999999997","-119.892821",NA,NA,NA,NA,NA,NA,NA,NA,NA,NA,NA,NA,NA,NA,NA,NA,NA,NA,NA,"TRUE"
"NV","WD","GW","IN",NA,"moapa band of paiute indians",NA,NA,"25310","7844",NA,NA,NA,NA,NA,NA,NA,NA,NA,NA,NA,NA,NA,"219",NA,NA,NA,"CL",NA,NA,NA,NA,NA,"36.735717999999999","-114.734048",NA,NA,NA,NA,NA,NA,NA,NA,NA,NA,NA,NA,NA,NA,NA,NA,NA,NA,NA,"TRUE"
"NV","WD","SW","IN",NA,"muddy valley irrigation company",NA,NA,"23600","7316",NA,NA,NA,NA,NA,NA,NA,NA,NA,NA,NA,NA,NA,"219",NA,NA,NA,"CL",NA,NA,NA,NA,NA,"36.711261999999998","-114.695624",NA,NA,NA,NA,NA,NA,NA,NA,NA,NA,NA,NA,NA,NA,NA,NA,NA,NA,NA,"TRUE"
"NV","WD","GW","IN",NA,"mustang business park limited liability corporation",NA,NA,"67385","18896",NA,NA,NA,NA,NA,NA,NA,NA,NA,NA,NA,NA,NA,"83",NA,NA,NA,"ST",NA,NA,NA,NA,NA,"39.524234999999997","-119.60342300000001",NA,NA,NA,NA,NA,NA,NA,NA,NA,NA,NA,NA,NA,NA,NA,NA,NA,NA,NA,"TRUE"
"NV","WD","GW","IN",NA,"naylor place limited liability corporation a nevada limited liability company",NA,NA,"61429","15446",NA,NA,NA,NA,NA,NA,NA,NA,NA,NA,NA,NA,NA,"162",NA,NA,NA,"NY",NA,NA,NA,NA,NA,"36.221069","-115.97790999999999",NA,NA,NA,NA,NA,NA,NA,NA,NA,NA,NA,NA,NA,NA,NA,NA,NA,NA,NA,"TRUE"
"NV","WD",NA,NA,NA,"nevada cement",NA,NA,"21484",NA,NA,NA,NA,NA,NA,"327310","3241",NA,NA,NA,NA,NA,NA,NA,NA,NA,NA,NA,NA,NA,NA,NA,NA,NA,NA,NA,NA,NA,NA,NA,NA,NA,NA,NA,NA,NA,NA,NA,NA,NA,NA,NA,NA,NA,"TRUE"
"NV","WD","GW","IN",NA,"nevada cement company",NA,NA,"21484","6684",NA,NA,NA,NA,NA,NA,NA,NA,NA,NA,NA,NA,NA,"76",NA,NA,NA,"LY",NA,NA,NA,NA,NA,"39.619743","-119.26226",NA,NA,NA,NA,NA,NA,NA,NA,NA,NA,NA,NA,NA,NA,NA,NA,NA,NA,NA,"TRUE"
"NV","WD","GW","IN",NA,"nevada cement company",NA,NA,"21525","6392",NA,NA,NA,NA,NA,NA,NA,NA,NA,NA,NA,NA,NA,"76",NA,NA,NA,"LY",NA,NA,NA,NA,NA,"39.619743","-119.26226",NA,NA,NA,NA,NA,NA,NA,NA,NA,NA,NA,NA,NA,NA,NA,NA,NA,NA,NA,"TRUE"
"NV","WD","GW","IN",NA,"nevada cement company",NA,NA,"24451","7953",NA,NA,NA,NA,NA,NA,NA,NA,NA,NA,NA,NA,NA,"76",NA,NA,NA,"LY",NA,NA,NA,NA,NA,"39.619743","-119.26226",NA,NA,NA,NA,NA,NA,NA,NA,NA,NA,NA,NA,NA,NA,NA,NA,NA,NA,NA,"TRUE"
"NV","WD","WW","IN",NA,"nevada cement company",NA,NA,"25577","8933",NA,NA,NA,NA,NA,NA,NA,NA,NA,NA,NA,NA,NA,"76",NA,NA,NA,"LY",NA,NA,NA,NA,NA,"39.615758999999997","-119.258381",NA,NA,NA,NA,NA,NA,NA,NA,NA,NA,NA,NA,NA,NA,NA,NA,NA,NA,NA,"TRUE"
"NV","WD","GW","IN",NA,"nevada cement company",NA,NA,"31680","10268",NA,NA,NA,NA,NA,NA,NA,NA,NA,NA,NA,NA,NA,"76",NA,NA,NA,"LY",NA,NA,NA,NA,NA,"39.619639999999997","-119.259896",NA,NA,NA,NA,NA,NA,NA,NA,NA,NA,NA,NA,NA,NA,NA,NA,NA,NA,NA,"TRUE"
"NV","WD","GW","IN",NA,"nevada cogeneration associates",NA,NA,"58032","17125",NA,NA,NA,NA,NA,NA,NA,NA,NA,NA,NA,NA,NA,"215",NA,NA,NA,"CL",NA,NA,NA,NA,NA,"36.295845","-114.886375",NA,NA,NA,NA,NA,NA,NA,NA,NA,NA,NA,NA,NA,NA,NA,NA,NA,NA,NA,"TRUE"
"NV","WD","GW","IN",NA,"nevada cogeneration associates 1",NA,NA,"55269","17123",NA,NA,NA,NA,NA,NA,NA,NA,NA,NA,NA,NA,NA,"215",NA,NA,NA,"CL",NA,NA,NA,NA,NA,"36.293818000000002","-114.888186",NA,NA,NA,NA,NA,NA,NA,NA,NA,NA,NA,NA,NA,NA,NA,NA,NA,NA,NA,"TRUE"
"NV","WD","GW","IN",NA,"nevada cogeneration associates 1",NA,NA,"58031","17124",NA,NA,NA,NA,NA,NA,NA,NA,NA,NA,NA,NA,NA,"215",NA,NA,NA,"CL",NA,NA,NA,NA,NA,"36.297386000000003","-114.885525",NA,NA,NA,NA,NA,NA,NA,NA,NA,NA,NA,NA,NA,NA,NA,NA,NA,NA,NA,"TRUE"
"NV","WD","GW","IN",NA,"nevada department of transportation",NA,NA,"26426","9426",NA,NA,NA,NA,NA,NA,NA,NA,NA,NA,NA,NA,NA,"101",NA,NA,NA,"CH",NA,NA,NA,NA,NA,"39.505291","-118.91217",NA,NA,NA,NA,NA,NA,NA,NA,NA,NA,NA,NA,NA,NA,NA,NA,NA,NA,NA,"TRUE"
"NV","WD","SW","IN",NA,"nevada department of transportation",NA,NA,"7988","1483",NA,NA,NA,NA,NA,NA,NA,NA,NA,NA,NA,NA,NA,"75",NA,NA,NA,"CH",NA,NA,NA,NA,NA,"39.787098","-119.012011",NA,NA,NA,NA,NA,NA,NA,NA,NA,NA,NA,NA,NA,NA,NA,NA,NA,NA,NA,"TRUE"
"NV","WD","GW","IN",NA,"nevada department of transportation",NA,NA,"82951",NA,NA,NA,NA,NA,NA,NA,NA,NA,NA,NA,NA,NA,NA,"179",NA,NA,NA,"WP",NA,NA,NA,NA,NA,"39.314908000000003","-114.864931",NA,NA,NA,NA,NA,NA,NA,NA,NA,NA,NA,NA,NA,NA,NA,NA,NA,NA,NA,"TRUE"
"NV","WD","GW","IN",NA,"nevada freeport storage company",NA,NA,"24030","6830",NA,NA,NA,NA,NA,NA,NA,NA,NA,NA,NA,NA,NA,"49",NA,NA,NA,"EL",NA,NA,NA,NA,NA,"40.839308000000003","-115.751914",NA,NA,NA,NA,NA,NA,NA,NA,NA,NA,NA,NA,NA,NA,NA,NA,NA,NA,NA,"TRUE"
"NV","WD","GW","IN",NA,"nevada gold mines limited liability corporation",NA,NA,"70577",NA,NA,NA,NA,NA,NA,NA,NA,NA,NA,NA,NA,NA,NA,"83",NA,NA,NA,"ST",NA,NA,NA,NA,NA,"39.560350999999997","-119.510079",NA,NA,NA,NA,NA,NA,NA,NA,NA,NA,NA,NA,NA,NA,NA,NA,NA,NA,NA,"TRUE"
"NV","WD","GW","IN",NA,"nevada gold mines limited liability corporation",NA,NA,"76012",NA,NA,NA,NA,NA,NA,NA,NA,NA,NA,NA,NA,NA,NA,"61",NA,NA,NA,"EU",NA,NA,NA,NA,NA,"40.775990999999998","-116.53118499999999",NA,NA,NA,NA,NA,NA,NA,NA,NA,NA,NA,NA,NA,NA,NA,NA,NA,NA,NA,"TRUE"
"NV","WD","GW","IN",NA,"nevada gold mines limited liability corporation",NA,NA,"76013",NA,NA,NA,NA,NA,NA,NA,NA,NA,NA,NA,NA,NA,NA,"61",NA,NA,NA,"EU",NA,NA,NA,NA,NA,"40.775990999999998","-116.53118499999999",NA,NA,NA,NA,NA,NA,NA,NA,NA,NA,NA,NA,NA,NA,NA,NA,NA,NA,NA,"TRUE"
"NV","WD","GW","IN",NA,"nevada gold mines limited liability corporation",NA,NA,"76014",NA,NA,NA,NA,NA,NA,NA,NA,NA,NA,NA,NA,NA,NA,"61",NA,NA,NA,"EU",NA,NA,NA,NA,NA,"40.775990999999998","-116.53118499999999",NA,NA,NA,NA,NA,NA,NA,NA,NA,NA,NA,NA,NA,NA,NA,NA,NA,NA,NA,"TRUE"
"NV","WD","GW","IN",NA,"nevada gold mines limited liability corporation",NA,NA,"76015",NA,NA,NA,NA,NA,NA,NA,NA,NA,NA,NA,NA,NA,NA,"61",NA,NA,NA,"EU",NA,NA,NA,NA,NA,"40.792656000000001","-116.515399",NA,NA,NA,NA,NA,NA,NA,NA,NA,NA,NA,NA,NA,NA,NA,NA,NA,NA,NA,"TRUE"
"NV","WD","GW","IN",NA,"nevada gold mines limited liability corporation",NA,NA,"76016",NA,NA,NA,NA,NA,NA,NA,NA,NA,NA,NA,NA,NA,NA,"61",NA,NA,NA,"EU",NA,NA,NA,NA,NA,"40.792656000000001","-116.515399",NA,NA,NA,NA,NA,NA,NA,NA,NA,NA,NA,NA,NA,NA,NA,NA,NA,NA,NA,"TRUE"
"NV","WD","GW","IN",NA,"nevada gold mines limited liability corporation",NA,NA,"76017",NA,NA,NA,NA,NA,NA,NA,NA,NA,NA,NA,NA,NA,NA,"61",NA,NA,NA,"EU",NA,NA,NA,NA,NA,"40.792656000000001","-116.515399",NA,NA,NA,NA,NA,NA,NA,NA,NA,NA,NA,NA,NA,NA,NA,NA,NA,NA,NA,"TRUE"
"NV","WD","GW","IN",NA,"nevada gold mines limited liability corporation",NA,NA,"76018",NA,NA,NA,NA,NA,NA,NA,NA,NA,NA,NA,NA,NA,NA,"61",NA,NA,NA,"EU",NA,NA,NA,NA,NA,"40.754489999999997","-116.54517",NA,NA,NA,NA,NA,NA,NA,NA,NA,NA,NA,NA,NA,NA,NA,NA,NA,NA,NA,"TRUE"
"NV","WD","GW","IN",NA,"nevada hydrocarbon incorporated",NA,NA,"55014","18708",NA,NA,NA,NA,NA,NA,NA,NA,NA,NA,NA,NA,NA,"83",NA,NA,NA,"ST",NA,NA,NA,NA,NA,"39.522134000000001","-119.606677",NA,NA,NA,NA,NA,NA,NA,NA,NA,NA,NA,NA,NA,NA,NA,NA,NA,NA,NA,"TRUE"
"NV","WD","GW","IN",NA,"nevada land and resource holdings incorporated",NA,NA,"85242",NA,NA,NA,NA,NA,NA,NA,NA,NA,NA,NA,NA,NA,NA,"82",NA,NA,NA,"WA",NA,NA,NA,NA,NA,"39.669722","-119.2308",NA,NA,NA,NA,NA,NA,NA,NA,NA,NA,NA,NA,NA,NA,NA,NA,NA,NA,NA,"TRUE"
"NV","WD","SW","IN",NA,"nevada power company",NA,NA,"29764","9661",NA,NA,NA,NA,NA,NA,NA,NA,NA,NA,NA,NA,NA,"219",NA,NA,NA,"CL",NA,NA,NA,NA,NA,"36.71152","-114.69595200000001",NA,NA,NA,NA,NA,NA,NA,NA,NA,NA,NA,NA,NA,NA,NA,NA,NA,NA,NA,"TRUE"
"NV","WD","GW","IN",NA,"nevada power company",NA,NA,"44313","12946",NA,NA,NA,NA,NA,NA,NA,NA,NA,NA,NA,NA,NA,"205",NA,NA,NA,"CL",NA,NA,NA,NA,NA,"36.676746000000001","-114.579193",NA,NA,NA,NA,NA,NA,NA,NA,NA,NA,NA,NA,NA,NA,NA,NA,NA,NA,NA,"TRUE"
"NV","WD","GW","IN",NA,"nevada power company",NA,NA,"44317","12950",NA,NA,NA,NA,NA,NA,NA,NA,NA,NA,NA,NA,NA,"205",NA,NA,NA,"CL",NA,NA,NA,NA,NA,"36.676746000000001","-114.579193",NA,NA,NA,NA,NA,NA,NA,NA,NA,NA,NA,NA,NA,NA,NA,NA,NA,NA,NA,"TRUE"
"NV","WD","GW","IN",NA,"nevada power company",NA,NA,"45219","11186",NA,NA,NA,NA,NA,NA,NA,NA,NA,NA,NA,NA,NA,"205",NA,NA,NA,"CL",NA,NA,NA,NA,NA,"36.684987","-114.576275",NA,NA,NA,NA,NA,NA,NA,NA,NA,NA,NA,NA,NA,NA,NA,NA,NA,NA,NA,"TRUE"
"NV","WD","GW","IN",NA,"nevada power company",NA,NA,"45220","11187",NA,NA,NA,NA,NA,NA,NA,NA,NA,NA,NA,NA,NA,"205",NA,NA,NA,"CL",NA,NA,NA,NA,NA,"36.673476000000001","-114.57926500000001",NA,NA,NA,NA,NA,NA,NA,NA,NA,NA,NA,NA,NA,NA,NA,NA,NA,NA,NA,"TRUE"
"NV","WD","WW","IN",NA,"nevada power company",NA,NA,"21728S01","6885",NA,NA,NA,NA,NA,NA,NA,NA,NA,NA,NA,NA,NA,"212",NA,NA,NA,"CL",NA,NA,NA,NA,NA,"36.112496","-115.04452000000001",NA,NA,NA,NA,NA,NA,NA,NA,NA,NA,NA,NA,NA,NA,NA,NA,NA,NA,NA,"TRUE"
"NV","WD","GW","IN",NA,"nevada power company",NA,NA,"22632","7164",NA,NA,NA,NA,NA,NA,NA,NA,NA,NA,NA,NA,NA,"219",NA,NA,NA,"CL",NA,NA,NA,NA,NA,"36.731309000000003","-114.736097",NA,NA,NA,NA,NA,NA,NA,NA,NA,NA,NA,NA,NA,NA,NA,NA,NA,NA,NA,"TRUE"
"NV","WD","GW","IN",NA,"nevada power company",NA,NA,"22633","7165",NA,NA,NA,NA,NA,NA,NA,NA,NA,NA,NA,NA,NA,"219",NA,NA,NA,"CL",NA,NA,NA,NA,NA,"36.735664","-114.73870599999999",NA,NA,NA,NA,NA,NA,NA,NA,NA,NA,NA,NA,NA,NA,NA,NA,NA,NA,NA,"TRUE"
"NV","WD","GW","IN",NA,"nevada power company",NA,NA,"22635","7166",NA,NA,NA,NA,NA,NA,NA,NA,NA,NA,NA,NA,NA,"219",NA,NA,NA,"CL",NA,NA,NA,NA,NA,"36.735717999999999","-114.734048",NA,NA,NA,NA,NA,NA,NA,NA,NA,NA,NA,NA,NA,NA,NA,NA,NA,NA,NA,"TRUE"
"NV","WD","GW","IN",NA,"nevada power company",NA,NA,"22636","7167",NA,NA,NA,NA,NA,NA,NA,NA,NA,NA,NA,NA,NA,"219",NA,NA,NA,"CL",NA,NA,NA,NA,NA,"36.732567000000003","-114.737871",NA,NA,NA,NA,NA,NA,NA,NA,NA,NA,NA,NA,NA,NA,NA,NA,NA,NA,NA,"TRUE"
"NV","WD","GW","IN",NA,"nevada power company",NA,NA,"22950","7169",NA,NA,NA,NA,NA,NA,NA,NA,NA,NA,NA,NA,NA,"219",NA,NA,NA,"CL",NA,NA,NA,NA,NA,"36.735664","-114.73870599999999",NA,NA,NA,NA,NA,NA,NA,NA,NA,NA,NA,NA,NA,NA,NA,NA,NA,NA,NA,"TRUE"
"NV","WD","GW","IN",NA,"nevada power company",NA,NA,"22951","7170",NA,NA,NA,NA,NA,NA,NA,NA,NA,NA,NA,NA,NA,"219",NA,NA,NA,"CL",NA,NA,NA,NA,NA,"36.732567000000003","-114.737871",NA,NA,NA,NA,NA,NA,NA,NA,NA,NA,NA,NA,NA,NA,NA,NA,NA,NA,NA,"TRUE"
"NV","WD","GW","IN",NA,"nevada power company",NA,NA,"22952","7171",NA,NA,NA,NA,NA,NA,NA,NA,NA,NA,NA,NA,NA,"219",NA,NA,NA,"CL",NA,NA,NA,NA,NA,"36.731309000000003","-114.736097",NA,NA,NA,NA,NA,NA,NA,NA,NA,NA,NA,NA,NA,NA,NA,NA,NA,NA,NA,"TRUE"
"NV","WD","GW","IN",NA,"nevada power company",NA,NA,"24185","7172",NA,NA,NA,NA,NA,NA,NA,NA,NA,NA,NA,NA,NA,"219",NA,NA,NA,"CL",NA,NA,NA,NA,NA,"36.736445000000003","-114.73611099999999",NA,NA,NA,NA,NA,NA,NA,NA,NA,NA,NA,NA,NA,NA,NA,NA,NA,NA,NA,"TRUE"
"NV","WD","GW","IN",NA,"nevada power company",NA,NA,"24186","7173",NA,NA,NA,NA,NA,NA,NA,NA,NA,NA,NA,NA,NA,"219",NA,NA,NA,"CL",NA,NA,NA,NA,NA,"36.736445000000003","-114.73611099999999",NA,NA,NA,NA,NA,NA,NA,NA,NA,NA,NA,NA,NA,NA,NA,NA,NA,NA,NA,"TRUE"
"NV","WD","GW","IN",NA,"nevada power company",NA,NA,"29296","9691",NA,NA,NA,NA,NA,NA,NA,NA,NA,NA,NA,NA,NA,"219",NA,NA,NA,"CL",NA,NA,NA,NA,NA,"36.710906000000001","-114.69327199999999",NA,NA,NA,NA,NA,NA,NA,NA,NA,NA,NA,NA,NA,NA,NA,NA,NA,NA,NA,"TRUE"
"NV","WD","GW","IN",NA,"nevada power company",NA,NA,"29298","9750",NA,NA,NA,NA,NA,NA,NA,NA,NA,NA,NA,NA,NA,"219",NA,NA,NA,"CL",NA,NA,NA,NA,NA,"36.710898","-114.693326",NA,NA,NA,NA,NA,NA,NA,NA,NA,NA,NA,NA,NA,NA,NA,NA,NA,NA,NA,"TRUE"
"NV","WD","GW","IN",NA,"nevada power company",NA,NA,"44315","12947",NA,NA,NA,NA,NA,NA,NA,NA,NA,NA,NA,NA,NA,"205",NA,NA,NA,"CL",NA,NA,NA,NA,NA,"36.681818","-114.580663",NA,NA,NA,NA,NA,NA,NA,NA,NA,NA,NA,NA,NA,NA,NA,NA,NA,NA,NA,"TRUE"
"NV","WD","GW","IN",NA,"nevada power company",NA,NA,"44316","12949",NA,NA,NA,NA,NA,NA,NA,NA,NA,NA,NA,NA,NA,"205",NA,NA,NA,"CL",NA,NA,NA,NA,NA,"36.673783","-114.57511",NA,NA,NA,NA,NA,NA,NA,NA,NA,NA,NA,NA,NA,NA,NA,NA,NA,NA,NA,"TRUE"
"NV","WD","GW","IN",NA,"nevada power company",NA,NA,"44318","12951",NA,NA,NA,NA,NA,NA,NA,NA,NA,NA,NA,NA,NA,"205",NA,NA,NA,"CL",NA,NA,NA,NA,NA,"36.676746000000001","-114.579193",NA,NA,NA,NA,NA,NA,NA,NA,NA,NA,NA,NA,NA,NA,NA,NA,NA,NA,NA,"TRUE"
"NV","WD","GW","IN",NA,"nevada power company",NA,NA,"45218","12955",NA,NA,NA,NA,NA,NA,NA,NA,NA,NA,NA,NA,NA,"205",NA,NA,NA,"CL",NA,NA,NA,NA,NA,"36.698943","-114.59022",NA,NA,NA,NA,NA,NA,NA,NA,NA,NA,NA,NA,NA,NA,NA,NA,NA,NA,NA,"TRUE"
"NV","WD","GW","IN",NA,"nevada power company",NA,NA,"50272","13507",NA,NA,NA,NA,NA,NA,NA,NA,NA,NA,NA,NA,NA,"219",NA,NA,NA,"CL",NA,NA,NA,NA,NA,"36.710411999999998","-114.697137",NA,NA,NA,NA,NA,NA,NA,NA,NA,NA,NA,NA,NA,NA,NA,NA,NA,NA,NA,"TRUE"
"NV","WD","GW","IN",NA,"nevada power company",NA,NA,"50273","13508",NA,NA,NA,NA,NA,NA,NA,NA,NA,NA,NA,NA,NA,"219",NA,NA,NA,"CL",NA,NA,NA,NA,NA,"36.710411999999998","-114.697137",NA,NA,NA,NA,NA,NA,NA,NA,NA,NA,NA,NA,NA,NA,NA,NA,NA,NA,NA,"TRUE"
"NV","WD","GW","IN",NA,"nevada power company",NA,NA,"50275","13510",NA,NA,NA,NA,NA,NA,NA,NA,NA,NA,NA,NA,NA,"219",NA,NA,NA,"CL",NA,NA,NA,NA,NA,"36.710411999999998","-114.697137",NA,NA,NA,NA,NA,NA,NA,NA,NA,NA,NA,NA,NA,NA,NA,NA,NA,NA,NA,"TRUE"
"NV","WD","GW","IN",NA,"nevada power company",NA,NA,"50559","13823",NA,NA,NA,NA,NA,NA,NA,NA,NA,NA,NA,NA,NA,"218",NA,NA,NA,"CL",NA,NA,NA,NA,NA,"36.654887000000002","-114.63325",NA,NA,NA,NA,NA,NA,NA,NA,NA,NA,NA,NA,NA,NA,NA,NA,NA,NA,NA,"TRUE"
"NV","WD","GW","IN",NA,"nevada power company",NA,NA,"50934","13581",NA,NA,NA,NA,NA,NA,NA,NA,NA,NA,NA,NA,NA,"219",NA,NA,NA,"CL",NA,NA,NA,NA,NA,"36.710411999999998","-114.697137",NA,NA,NA,NA,NA,NA,NA,NA,NA,NA,NA,NA,NA,NA,NA,NA,NA,NA,NA,"TRUE"
"NV","WD","WW","IN",NA,"nevada power company",NA,NA,"51838S03","14531",NA,NA,NA,NA,NA,NA,NA,NA,NA,NA,NA,NA,NA,"212",NA,NA,NA,"CL",NA,NA,NA,NA,NA,"36.113190000000003","-115.04442299999999",NA,NA,NA,NA,NA,NA,NA,NA,NA,NA,NA,NA,NA,NA,NA,NA,NA,NA,NA,"TRUE"
"NV","WD","GW","IN",NA,"nevada power company",NA,NA,"74399","17531",NA,NA,NA,NA,NA,NA,NA,NA,NA,NA,NA,NA,NA,"216",NA,NA,NA,"CL",NA,NA,NA,NA,NA,"36.455632999999999","-114.847082",NA,NA,NA,NA,NA,NA,NA,NA,NA,NA,NA,NA,NA,NA,NA,NA,NA,NA,NA,"TRUE"
"NV","WD","GW","IN",NA,"nevada power company",NA,NA,"77164",NA,NA,NA,NA,NA,NA,NA,NA,NA,NA,NA,NA,NA,NA,"210",NA,NA,NA,"CL",NA,NA,NA,NA,NA,"36.794241999999997","-114.894875",NA,NA,NA,NA,NA,NA,NA,NA,NA,NA,NA,NA,NA,NA,NA,NA,NA,NA,NA,"TRUE"
"NV","WD","GW","IN",NA,"nevada power company",NA,NA,"79068","20183",NA,NA,NA,NA,NA,NA,NA,NA,NA,NA,NA,NA,NA,"219",NA,NA,NA,"CL",NA,NA,NA,NA,NA,"36.710411999999998","-114.697137",NA,NA,NA,NA,NA,NA,NA,NA,NA,NA,NA,NA,NA,NA,NA,NA,NA,NA,NA,"TRUE"
"NV","WD","GW","IN",NA,"nevada power company",NA,NA,"80843",NA,NA,NA,NA,NA,NA,NA,NA,NA,NA,NA,NA,NA,NA,"219",NA,NA,NA,"CL",NA,NA,NA,NA,NA,"36.735717999999999","-114.734048",NA,NA,NA,NA,NA,NA,NA,NA,NA,NA,NA,NA,NA,NA,NA,NA,NA,NA,NA,"TRUE"
"NV","WD","GW","IN",NA,"nevada power company",NA,NA,"80844",NA,NA,NA,NA,NA,NA,NA,NA,NA,NA,NA,NA,NA,NA,"219",NA,NA,NA,"CL",NA,NA,NA,NA,NA,"36.735664","-114.73870599999999",NA,NA,NA,NA,NA,NA,NA,NA,NA,NA,NA,NA,NA,NA,NA,NA,NA,NA,NA,"TRUE"
"NV","WD","GW","IN",NA,"nevada power company",NA,NA,"80845",NA,NA,NA,NA,NA,NA,NA,NA,NA,NA,NA,NA,NA,NA,"219",NA,NA,NA,"CL",NA,NA,NA,NA,NA,"36.736445000000003","-114.73611099999999",NA,NA,NA,NA,NA,NA,NA,NA,NA,NA,NA,NA,NA,NA,NA,NA,NA,NA,NA,"TRUE"
"NV","WD","GW","IN",NA,"nevada power company",NA,NA,"80846",NA,NA,NA,NA,NA,NA,NA,NA,NA,NA,NA,NA,NA,NA,"219",NA,NA,NA,"CL",NA,NA,NA,NA,NA,"36.732567000000003","-114.737871",NA,NA,NA,NA,NA,NA,NA,NA,NA,NA,NA,NA,NA,NA,NA,NA,NA,NA,NA,"TRUE"
"NV","WD","GW","IN",NA,"nevada power company",NA,NA,"85156",NA,NA,NA,NA,NA,NA,NA,NA,NA,NA,NA,NA,NA,NA,"219",NA,NA,NA,"CL",NA,NA,NA,NA,NA,"36.731445000000001","-114.736194",NA,NA,NA,NA,NA,NA,NA,NA,NA,NA,NA,NA,NA,NA,NA,NA,NA,NA,NA,"TRUE"
"NV","WD","SW","IN",NA,"nevada power company lessee",NA,NA,"50734","13851",NA,NA,NA,NA,NA,NA,NA,NA,NA,NA,NA,NA,NA,"219",NA,NA,NA,"CL",NA,NA,NA,NA,NA,"36.71152","-114.69595200000001",NA,NA,NA,NA,NA,NA,NA,NA,NA,NA,NA,NA,NA,NA,NA,NA,NA,NA,NA,"TRUE"
"NV","WD",NA,NA,NA,"new millennium building systems",NA,NA,NA,NA,NA,NA,NA,NA,NA,"332312","3441",NA,NA,NA,NA,NA,NA,NA,NA,NA,NA,NA,NA,NA,NA,NA,NA,NA,NA,NA,NA,NA,NA,NA,NA,NA,NA,NA,NA,NA,NA,NA,NA,NA,NA,NA,NA,NA,"TRUE"
"NV","WD","GW","IN",NA,"new nevada lands limited liability corporation",NA,NA,"77056",NA,NA,NA,NA,NA,NA,NA,NA,NA,NA,NA,NA,NA,NA,"31",NA,NA,NA,"HU",NA,NA,NA,NA,NA,"40.957717000000002","-118.140103",NA,NA,NA,NA,NA,NA,NA,NA,NA,NA,NA,NA,NA,NA,NA,NA,NA,NA,NA,"TRUE"
"NV","WD","GW","IN",NA,"new nevada lands limited liability corporation",NA,NA,"78915",NA,NA,NA,NA,NA,NA,NA,NA,NA,NA,NA,NA,NA,NA,"31",NA,NA,NA,"HU",NA,NA,NA,NA,NA,"40.964916000000002","-118.141442",NA,NA,NA,NA,NA,NA,NA,NA,NA,NA,NA,NA,NA,NA,NA,NA,NA,NA,NA,"TRUE"
"NV","WD","GW","IN",NA,"new nevada lands limited liability corporation",NA,NA,"78916",NA,NA,NA,NA,NA,NA,NA,NA,NA,NA,NA,NA,NA,NA,"31",NA,NA,NA,"HU",NA,NA,NA,NA,NA,"40.964916000000002","-118.141442",NA,NA,NA,NA,NA,NA,NA,NA,NA,NA,NA,NA,NA,NA,NA,NA,NA,NA,NA,"TRUE"
"NV","WD","GW","IN",NA,"new nevada lands limited liability corporation",NA,NA,"78917",NA,NA,NA,NA,NA,NA,NA,NA,NA,NA,NA,NA,NA,NA,"31",NA,NA,NA,"HU",NA,NA,NA,NA,NA,"40.959746000000003","-118.14637399999999",NA,NA,NA,NA,NA,NA,NA,NA,NA,NA,NA,NA,NA,NA,NA,NA,NA,NA,NA,"TRUE"
"NV","WD","GW","IN",NA,"new nevada lands limited liability corporation",NA,NA,"78918",NA,NA,NA,NA,NA,NA,NA,NA,NA,NA,NA,NA,NA,NA,"31",NA,NA,NA,"HU",NA,NA,NA,NA,NA,"40.959746000000003","-118.14637399999999",NA,NA,NA,NA,NA,NA,NA,NA,NA,NA,NA,NA,NA,NA,NA,NA,NA,NA,NA,"TRUE"
"NV","WD","GW","IN",NA,"new nevada lands limited liability corporation",NA,NA,"78922",NA,NA,NA,NA,NA,NA,NA,NA,NA,NA,NA,NA,NA,NA,"31",NA,NA,NA,"HU",NA,NA,NA,NA,NA,"40.959746000000003","-118.14637399999999",NA,NA,NA,NA,NA,NA,NA,NA,NA,NA,NA,NA,NA,NA,NA,NA,NA,NA,NA,"TRUE"
"NV","WD","GW","IN",NA,"new nevada lands limited liability corporation",NA,NA,"78923",NA,NA,NA,NA,NA,NA,NA,NA,NA,NA,NA,NA,NA,NA,"31",NA,NA,NA,"HU",NA,NA,NA,NA,NA,"40.964916000000002","-118.141442",NA,NA,NA,NA,NA,NA,NA,NA,NA,NA,NA,NA,NA,NA,NA,NA,NA,NA,NA,"TRUE"
"NV","WD","GW","IN",NA,"nye county",NA,NA,"25630","8095",NA,NA,NA,NA,NA,NA,NA,NA,NA,NA,NA,NA,NA,"141",NA,NA,NA,"NY",NA,NA,NA,NA,NA,"38.067154000000002","-117.103331",NA,NA,NA,NA,NA,NA,NA,NA,NA,NA,NA,NA,NA,NA,NA,NA,NA,NA,NA,"TRUE"
"NV","WD","GW","IN",NA,"olam west coast incorporated",NA,NA,"44643",NA,NA,NA,NA,NA,NA,NA,NA,NA,NA,NA,NA,NA,NA,"75",NA,NA,NA,"CH",NA,NA,NA,NA,NA,"39.789011000000002","-119.01198599999999",NA,NA,NA,NA,NA,NA,NA,NA,NA,NA,NA,NA,NA,NA,NA,NA,NA,NA,NA,"TRUE"
"NV","WD","GW","IN",NA,"olam west coast incorporated",NA,NA,"44646",NA,NA,NA,NA,NA,NA,NA,NA,NA,NA,NA,NA,NA,NA,"75",NA,NA,NA,"CH",NA,NA,NA,NA,NA,"39.790413999999998","-119.01353",NA,NA,NA,NA,NA,NA,NA,NA,NA,NA,NA,NA,NA,NA,NA,NA,NA,NA,NA,"TRUE"
"NV","WD","GW","IN",NA,"olam west coast incorporated",NA,NA,"44647",NA,NA,NA,NA,NA,NA,NA,NA,NA,NA,NA,NA,NA,NA,"75",NA,NA,NA,"CH",NA,NA,NA,NA,NA,"39.789960000000001","-119.01147",NA,NA,NA,NA,NA,NA,NA,NA,NA,NA,NA,NA,NA,NA,NA,NA,NA,NA,NA,"TRUE"
"NV","WD","GW","IN",NA,"olam west coast incorporated",NA,NA,"76197",NA,NA,NA,NA,NA,NA,NA,NA,NA,NA,NA,NA,NA,NA,"75",NA,NA,NA,"CH",NA,NA,NA,NA,NA,"39.790413999999998","-119.01353",NA,NA,NA,NA,NA,NA,NA,NA,NA,NA,NA,NA,NA,NA,NA,NA,NA,NA,NA,"TRUE"
"NV","WD","GW","IN",NA,"olam west coast incorporated",NA,NA,"76198",NA,NA,NA,NA,NA,NA,NA,NA,NA,NA,NA,NA,NA,NA,"75",NA,NA,NA,"CH",NA,NA,NA,NA,NA,"39.789960000000001","-119.01147",NA,NA,NA,NA,NA,NA,NA,NA,NA,NA,NA,NA,NA,NA,NA,NA,NA,NA,NA,"TRUE"
"NV","WD","GW","IN",NA,"olam west coast incorporated",NA,NA,"89687T",NA,NA,NA,NA,NA,NA,NA,NA,NA,NA,NA,NA,NA,NA,"75",NA,NA,NA,"CH",NA,NA,NA,NA,NA,"39.798889000000003","119.004722",NA,NA,NA,NA,NA,NA,NA,NA,NA,NA,NA,NA,NA,NA,NA,NA,NA,NA,NA,"TRUE"
"NV","WD","GW","IN",NA,"olam west coast incorporated",NA,NA,"89688T",NA,NA,NA,NA,NA,NA,NA,NA,NA,NA,NA,NA,NA,NA,"75",NA,NA,NA,"CH",NA,NA,NA,NA,NA,"39.798889000000003","119.004722",NA,NA,NA,NA,NA,NA,NA,NA,NA,NA,NA,NA,NA,NA,NA,NA,NA,NA,NA,"TRUE"
"NV","WD","SW","IN",NA,"ormat nevada incorporated",NA,NA,"80343",NA,NA,NA,NA,NA,NA,NA,NA,NA,NA,NA,NA,NA,NA,"91",NA,NA,NA,"WA",NA,NA,NA,NA,NA,"39.466240999999997","-120.002346",NA,NA,NA,NA,NA,NA,NA,NA,NA,NA,NA,NA,NA,NA,NA,NA,NA,NA,NA,"TRUE"
"NV","WD","SW","IN",NA,"ormat nevada incorporated",NA,NA,"80366",NA,NA,NA,NA,NA,NA,NA,NA,NA,NA,NA,NA,NA,NA,"91",NA,NA,NA,"WA",NA,NA,NA,NA,NA,"39.466240999999997","-120.002346",NA,NA,NA,NA,NA,NA,NA,NA,NA,NA,NA,NA,NA,NA,NA,NA,NA,NA,NA,"TRUE"
"NV","WD","SW","IN",NA,"ormat nevada incorporated",NA,NA,"80367",NA,NA,NA,NA,NA,NA,NA,NA,NA,NA,NA,NA,NA,NA,"91",NA,NA,NA,"WA",NA,NA,NA,NA,NA,"39.466240999999997","-120.002346",NA,NA,NA,NA,NA,NA,NA,NA,NA,NA,NA,NA,NA,NA,NA,NA,NA,NA,NA,"TRUE"
"NV","WD","SW","IN",NA,"ormat nevada incorporated",NA,NA,"80368",NA,NA,NA,NA,NA,NA,NA,NA,NA,NA,NA,NA,NA,NA,"91",NA,NA,NA,"WA",NA,NA,NA,NA,NA,"39.466240999999997","-120.002346",NA,NA,NA,NA,NA,NA,NA,NA,NA,NA,NA,NA,NA,NA,NA,NA,NA,NA,NA,"TRUE"
"NV","WD","SW","IN",NA,"ormat nevada incorporated",NA,NA,"80369",NA,NA,NA,NA,NA,NA,NA,NA,NA,NA,NA,NA,NA,NA,"91",NA,NA,NA,"WA",NA,NA,NA,NA,NA,"39.466240999999997","-120.002346",NA,NA,NA,NA,NA,NA,NA,NA,NA,NA,NA,NA,NA,NA,NA,NA,NA,NA,NA,"TRUE"
"NV","WD","SW","IN",NA,"ormat nevada incorporated",NA,NA,"80370",NA,NA,NA,NA,NA,NA,NA,NA,NA,NA,NA,NA,NA,NA,"91",NA,NA,NA,"WA",NA,NA,NA,NA,NA,"39.466240999999997","-120.002346",NA,NA,NA,NA,NA,NA,NA,NA,NA,NA,NA,NA,NA,NA,NA,NA,NA,NA,NA,"TRUE"
"NV","WD","SW","IN",NA,"ormat nevada incorporated",NA,NA,"80371",NA,NA,NA,NA,NA,NA,NA,NA,NA,NA,NA,NA,NA,NA,"91",NA,NA,NA,"WA",NA,NA,NA,NA,NA,"39.466240999999997","-120.002346",NA,NA,NA,NA,NA,NA,NA,NA,NA,NA,NA,NA,NA,NA,NA,NA,NA,NA,NA,"TRUE"
"NV","WD","SW","IN",NA,"ormat nevada incorporated",NA,NA,"80372",NA,NA,NA,NA,NA,NA,NA,NA,NA,NA,NA,NA,NA,NA,"91",NA,NA,NA,"WA",NA,NA,NA,NA,NA,"39.466240999999997","-120.002346",NA,NA,NA,NA,NA,NA,NA,NA,NA,NA,NA,NA,NA,NA,NA,NA,NA,NA,NA,"TRUE"
"NV","WD","SW","IN",NA,"ormat nevada incorporated",NA,NA,"80373",NA,NA,NA,NA,NA,NA,NA,NA,NA,NA,NA,NA,NA,NA,"91",NA,NA,NA,"WA",NA,NA,NA,NA,NA,"39.466240999999997","-120.002346",NA,NA,NA,NA,NA,NA,NA,NA,NA,NA,NA,NA,NA,NA,NA,NA,NA,NA,NA,"TRUE"
"NV","WD","SW","IN",NA,"ormat nevada incorporated",NA,NA,"80374",NA,NA,NA,NA,NA,NA,NA,NA,NA,NA,NA,NA,NA,NA,"91",NA,NA,NA,"WA",NA,NA,NA,NA,NA,"39.466240999999997","-120.002346",NA,NA,NA,NA,NA,NA,NA,NA,NA,NA,NA,NA,NA,NA,NA,NA,NA,NA,NA,"TRUE"
"NV","WD","SW","IN",NA,"ormat nevada incorporated",NA,NA,"80375",NA,NA,NA,NA,NA,NA,NA,NA,NA,NA,NA,NA,NA,NA,"91",NA,NA,NA,"WA",NA,NA,NA,NA,NA,"39.466240999999997","-120.002346",NA,NA,NA,NA,NA,NA,NA,NA,NA,NA,NA,NA,NA,NA,NA,NA,NA,NA,NA,"TRUE"
"NV","WD","SW","IN",NA,"ormat nevada incorporated",NA,NA,"80376",NA,NA,NA,NA,NA,NA,NA,NA,NA,NA,NA,NA,NA,NA,"91",NA,NA,NA,"WA",NA,NA,NA,NA,NA,"39.466240999999997","-120.002346",NA,NA,NA,NA,NA,NA,NA,NA,NA,NA,NA,NA,NA,NA,NA,NA,NA,NA,NA,"TRUE"
"NV","WD","SW","IN",NA,"ormat nevada incorporated",NA,NA,"80377",NA,NA,NA,NA,NA,NA,NA,NA,NA,NA,NA,NA,NA,NA,"91",NA,NA,NA,"WA",NA,NA,NA,NA,NA,"39.466240999999997","-120.002346",NA,NA,NA,NA,NA,NA,NA,NA,NA,NA,NA,NA,NA,NA,NA,NA,NA,NA,NA,"TRUE"
"NV","WD","SW","IN",NA,"ormat nevada incorporated",NA,NA,"80551",NA,NA,NA,NA,NA,NA,NA,NA,NA,NA,NA,NA,NA,NA,"91",NA,NA,NA,"WA",NA,NA,NA,NA,NA,"39.466240999999997","-120.002346",NA,NA,NA,NA,NA,NA,NA,NA,NA,NA,NA,NA,NA,NA,NA,NA,NA,NA,NA,"TRUE"
"NV","WD","SW","IN",NA,"ormat nevada incorporated",NA,NA,"80552",NA,NA,NA,NA,NA,NA,NA,NA,NA,NA,NA,NA,NA,NA,"91",NA,NA,NA,"WA",NA,NA,NA,NA,NA,"39.466240999999997","-120.002346",NA,NA,NA,NA,NA,NA,NA,NA,NA,NA,NA,NA,NA,NA,NA,NA,NA,NA,NA,"TRUE"
"NV","WD","SW","IN",NA,"ormat nevada incorporated",NA,NA,"80603",NA,NA,NA,NA,NA,NA,NA,NA,NA,NA,NA,NA,NA,NA,"91",NA,NA,NA,"WA",NA,NA,NA,NA,NA,"39.466240999999997","-120.002346",NA,NA,NA,NA,NA,NA,NA,NA,NA,NA,NA,NA,NA,NA,NA,NA,NA,NA,NA,"TRUE"
"NV","WD","SW","IN",NA,"ormat nevada incorporated",NA,NA,"80678",NA,NA,NA,NA,NA,NA,NA,NA,NA,NA,NA,NA,NA,NA,"91",NA,NA,NA,"WA",NA,NA,NA,NA,NA,"39.466240999999997","-120.002346",NA,NA,NA,NA,NA,NA,NA,NA,NA,NA,NA,NA,NA,NA,NA,NA,NA,NA,NA,"TRUE"
"NV","WD","SW","IN",NA,"ormat nevada incorporated",NA,NA,"83291",NA,NA,NA,NA,NA,NA,NA,NA,NA,NA,NA,NA,NA,NA,"91",NA,NA,NA,"WA",NA,NA,NA,NA,NA,"39.466240999999997","-120.002346",NA,NA,NA,NA,NA,NA,NA,NA,NA,NA,NA,NA,NA,NA,NA,NA,NA,NA,NA,"TRUE"
"NV","WD","SW","IN",NA,"ormat nevada incorporated",NA,NA,"83292",NA,NA,NA,NA,NA,NA,NA,NA,NA,NA,NA,NA,NA,NA,"91",NA,NA,NA,"WA",NA,NA,NA,NA,NA,"39.466240999999997","-120.002346",NA,NA,NA,NA,NA,NA,NA,NA,NA,NA,NA,NA,NA,NA,NA,NA,NA,NA,NA,"TRUE"
"NV","WD","GW","IN",NA,"orni 35 limited liability corporation",NA,NA,"81717",NA,NA,NA,NA,NA,NA,NA,NA,NA,NA,NA,NA,NA,NA,"129",NA,NA,NA,"PE",NA,NA,NA,NA,NA,"40.100617","-117.98641499999999",NA,NA,NA,NA,NA,NA,NA,NA,NA,NA,NA,NA,NA,NA,NA,NA,NA,NA,NA,"TRUE"
"NV","WD","GW","IN",NA,"p s f limited liabilities company",NA,NA,"59836","15710",NA,NA,NA,NA,NA,NA,NA,NA,NA,NA,NA,NA,NA,"50",NA,NA,NA,"EL",NA,NA,NA,NA,NA,"40.723115","-116.077253",NA,NA,NA,NA,NA,NA,NA,NA,NA,NA,NA,NA,NA,NA,NA,NA,NA,NA,NA,"TRUE"
"NV","WD",NA,NA,NA,"pacific coast building products","appears as pabco gypsum in hoovers",NA,NA,NA,NA,NA,NA,NA,NA,"327420","3275",NA,NA,NA,NA,NA,NA,NA,NA,NA,NA,NA,NA,NA,NA,NA,NA,NA,NA,NA,NA,NA,NA,NA,NA,NA,NA,NA,NA,NA,NA,NA,NA,NA,NA,NA,NA,NA,"TRUE"
"NV","WD","GW","IN",NA,"patua acquisition company limited liability corporation",NA,NA,"80039",NA,NA,NA,NA,NA,NA,NA,NA,NA,NA,NA,NA,NA,NA,"101",NA,NA,NA,"CH",NA,NA,NA,NA,NA,"39.585847000000001","-119.073025",NA,NA,NA,NA,NA,NA,NA,NA,NA,NA,NA,NA,NA,NA,NA,NA,NA,NA,NA,"TRUE"
"NV","WD","GW","IN",NA,"patua acquisition company limited liability corporation",NA,NA,"87546",NA,NA,NA,NA,NA,NA,NA,NA,NA,NA,NA,NA,NA,NA,"101",NA,NA,NA,"CH",NA,NA,NA,NA,NA,"39.577593","-119.085026",NA,NA,NA,NA,NA,NA,NA,NA,NA,NA,NA,NA,NA,NA,NA,NA,NA,NA,NA,"TRUE"
"NV","WD","GW","IN",NA,"patua acquisition company limited liability corporation",NA,NA,"87547",NA,NA,NA,NA,NA,NA,NA,NA,NA,NA,NA,NA,NA,NA,"101",NA,NA,NA,"CH",NA,NA,NA,NA,NA,"39.577567000000002","-119.08507400000001",NA,NA,NA,NA,NA,NA,NA,NA,NA,NA,NA,NA,NA,NA,NA,NA,NA,NA,NA,"TRUE"
"NV","WD","GW","IN",NA,"patua acquisition company limited liability corporation",NA,NA,"87548",NA,NA,NA,NA,NA,NA,NA,NA,NA,NA,NA,NA,NA,NA,"101",NA,NA,NA,"CH",NA,NA,NA,NA,NA,"39.577624","-119.085049",NA,NA,NA,NA,NA,NA,NA,NA,NA,NA,NA,NA,NA,NA,NA,NA,NA,NA,NA,"TRUE"
"NV","WD","GW","IN",NA,"pederson bjarne a",NA,NA,"26453","8865",NA,NA,NA,NA,NA,NA,NA,NA,NA,NA,NA,NA,NA,"104",NA,NA,NA,"CC",NA,NA,NA,NA,NA,"39.184148999999998","-119.713424",NA,NA,NA,NA,NA,NA,NA,NA,NA,NA,NA,NA,NA,NA,NA,NA,NA,NA,NA,"TRUE"
"NV","WD","SW","IN",NA,"pershing county",NA,NA,"V04877",NA,NA,NA,NA,NA,NA,NA,NA,NA,NA,NA,NA,NA,NA,"72",NA,NA,NA,"PE",NA,NA,NA,NA,NA,"40.598889","-118.148056",NA,NA,NA,NA,NA,NA,NA,NA,NA,NA,NA,NA,NA,NA,NA,NA,NA,NA,NA,"TRUE"
"NV","WD","GW","IN",NA,"petrie f brown trust",NA,NA,"29960","9876",NA,NA,NA,NA,NA,NA,NA,NA,NA,NA,NA,NA,NA,"104",NA,NA,NA,"CC",NA,NA,NA,NA,NA,"39.206190999999997","-119.684797",NA,NA,NA,NA,NA,NA,NA,NA,NA,NA,NA,NA,NA,NA,NA,NA,NA,NA,NA,"TRUE"
"NV","WD","GW","IN",NA,"petroleum source corporation",NA,NA,"55152",NA,NA,NA,NA,NA,NA,NA,NA,NA,NA,NA,NA,NA,NA,"173b",NA,NA,NA,"NY",NA,NA,NA,NA,NA,"38.62218","-115.61960999999999",NA,NA,NA,NA,NA,NA,NA,NA,NA,NA,NA,NA,NA,NA,NA,NA,NA,NA,NA,"TRUE"
"NV","WD","GW","IN",NA,"phillips petroleum company",NA,NA,"28243","8788",NA,NA,NA,NA,NA,NA,NA,NA,NA,NA,NA,NA,NA,"75",NA,NA,NA,"CH",NA,NA,NA,NA,NA,"39.735407000000002","-119.02490899999999",NA,NA,NA,NA,NA,NA,NA,NA,NA,NA,NA,NA,NA,NA,NA,NA,NA,NA,NA,"TRUE"
"NV","WD",NA,NA,NA,"pioneer chlor alkali",NA,NA,NA,NA,NA,NA,NA,NA,NA,"325181","2812",NA,NA,NA,NA,NA,NA,NA,NA,NA,NA,NA,NA,NA,NA,NA,NA,NA,NA,NA,NA,NA,NA,NA,NA,NA,NA,NA,NA,NA,NA,NA,NA,NA,NA,NA,NA,NA,"TRUE"
"NV","WD","GW","IN",NA,"refuse incorporated",NA,NA,"50465","13114",NA,NA,NA,NA,NA,NA,NA,NA,NA,NA,NA,NA,NA,"83",NA,NA,NA,"ST",NA,NA,NA,NA,NA,"39.500343000000001","-119.63654",NA,NA,NA,NA,NA,NA,NA,NA,NA,NA,NA,NA,NA,NA,NA,NA,NA,NA,NA,"TRUE"
"NV","WD","GW","IN",NA,"refuse incorporated",NA,NA,"54972","14268",NA,NA,NA,NA,NA,NA,NA,NA,NA,NA,NA,NA,NA,"83",NA,NA,NA,"ST",NA,NA,NA,NA,NA,"39.493414000000001","-119.621072",NA,NA,NA,NA,NA,NA,NA,NA,NA,NA,NA,NA,NA,NA,NA,NA,NA,NA,NA,"TRUE"
"NV","WD","GW","IN",NA,"refuse incorporated",NA,NA,"84172","21336",NA,NA,NA,NA,NA,NA,NA,NA,NA,NA,NA,NA,NA,"83",NA,NA,NA,"ST",NA,NA,NA,NA,NA,"39.519799999999996","-119.6056",NA,NA,NA,NA,NA,NA,NA,NA,NA,NA,NA,NA,NA,NA,NA,NA,NA,NA,NA,"TRUE"
"NV","WD","GW","IN",NA,"refuse incorporated",NA,NA,"84173","21337",NA,NA,NA,NA,NA,NA,NA,NA,NA,NA,NA,NA,NA,"83",NA,NA,NA,"ST",NA,NA,NA,NA,NA,"39.519799999999996","-119.6056",NA,NA,NA,NA,NA,NA,NA,NA,NA,NA,NA,NA,NA,NA,NA,NA,NA,NA,NA,"TRUE"
"NV","WD","GW","IN",NA,"refuse incorporated",NA,NA,"84174","21338",NA,NA,NA,NA,NA,NA,NA,NA,NA,NA,NA,NA,NA,"83",NA,NA,NA,"ST",NA,NA,NA,NA,NA,"39.519799999999996","-119.6056",NA,NA,NA,NA,NA,NA,NA,NA,NA,NA,NA,NA,NA,NA,NA,NA,NA,NA,NA,"TRUE"
"NV","WD",NA,NA,NA,"refuse incorporated storey county",NA,NA,NA,NA,NA,NA,NA,NA,NA,"562212","4953",NA,NA,NA,NA,NA,NA,NA,NA,NA,NA,NA,NA,NA,NA,NA,NA,NA,NA,NA,NA,NA,NA,NA,NA,NA,NA,NA,NA,NA,NA,NA,NA,NA,NA,NA,NA,NA,"TRUE"
"NV","WD","GW","IN",NA,"reno disposal company",NA,NA,"24642","8235",NA,NA,NA,NA,NA,NA,NA,NA,NA,NA,NA,NA,NA,"83",NA,NA,NA,"WA",NA,NA,NA,NA,NA,"39.526730000000001","-119.627939",NA,NA,NA,NA,NA,NA,NA,NA,NA,NA,NA,NA,NA,NA,NA,NA,NA,NA,NA,"TRUE"
"NV","WD",NA,NA,NA,"republic environmental technologies",NA,NA,NA,NA,NA,NA,NA,NA,NA,"562211","5093",NA,NA,NA,NA,NA,NA,NA,NA,NA,NA,NA,NA,NA,NA,NA,NA,NA,NA,NA,NA,NA,NA,NA,NA,NA,NA,NA,NA,NA,NA,NA,NA,NA,NA,NA,NA,NA,"TRUE"
"NV","WD","GW","IN",NA,"republic environmental technologies incorporated",NA,NA,"83707","21125",NA,NA,NA,NA,NA,NA,NA,NA,NA,NA,NA,NA,NA,"216",NA,NA,NA,"CL",NA,NA,NA,NA,NA,"36.388333000000003","-114.869444",NA,NA,NA,NA,NA,NA,NA,NA,NA,NA,NA,NA,NA,NA,NA,NA,NA,NA,NA,"TRUE"
"NV","WD","GW","IN",NA,"republic environmental technologies incorporated",NA,NA,"83708",NA,NA,NA,NA,NA,NA,NA,NA,NA,NA,NA,NA,NA,NA,"216",NA,NA,NA,"CL",NA,NA,NA,NA,NA,"36.388333000000003","-114.869444",NA,NA,NA,NA,NA,NA,NA,NA,NA,NA,NA,NA,NA,NA,NA,NA,NA,NA,NA,"TRUE"
"NV","WD","GW","IN",NA,"republic environmental technologies incorporated",NA,NA,"83709",NA,NA,NA,NA,NA,NA,NA,NA,NA,NA,NA,NA,NA,NA,"216",NA,NA,NA,"CL",NA,NA,NA,NA,NA,"36.395833000000003","-114.869444",NA,NA,NA,NA,NA,NA,NA,NA,NA,NA,NA,NA,NA,NA,NA,NA,NA,NA,NA,"TRUE"
"NV","WD","GW","IN",NA,"republic environmental technologies incorporated",NA,NA,"83710","21126",NA,NA,NA,NA,NA,NA,NA,NA,NA,NA,NA,NA,NA,"216",NA,NA,NA,"CL",NA,NA,NA,NA,NA,"36.373888999999998","-114.860556",NA,NA,NA,NA,NA,NA,NA,NA,NA,NA,NA,NA,NA,NA,NA,NA,NA,NA,NA,"TRUE"
"NV","WD","GW","IN",NA,"republic environmental technologies incorporated",NA,NA,"83711",NA,NA,NA,NA,NA,NA,NA,NA,NA,NA,NA,NA,NA,NA,"216",NA,NA,NA,"CL",NA,NA,NA,NA,NA,"36.373888999999998","-114.869444",NA,NA,NA,NA,NA,NA,NA,NA,NA,NA,NA,NA,NA,NA,NA,NA,NA,NA,NA,"TRUE"
"NV","WD","GW","IN",NA,"republic environmental technologies incorporated",NA,NA,"83712",NA,NA,NA,NA,NA,NA,NA,NA,NA,NA,NA,NA,NA,NA,"216",NA,NA,NA,"CL",NA,NA,NA,NA,NA,"36.373888999999998","-114.869444",NA,NA,NA,NA,NA,NA,NA,NA,NA,NA,NA,NA,NA,NA,NA,NA,NA,NA,NA,"TRUE"
"NV","WD","GW","IN",NA,"republic environmental technologies incorporated",NA,NA,"83713",NA,NA,NA,NA,NA,NA,NA,NA,NA,NA,NA,NA,NA,NA,"216",NA,NA,NA,"CL",NA,NA,NA,NA,NA,"36.373888999999998","-114.869444",NA,NA,NA,NA,NA,NA,NA,NA,NA,NA,NA,NA,NA,NA,NA,NA,NA,NA,NA,"TRUE"
"NV","WD","GW","IN",NA,"republic environmental technologies incorporated",NA,NA,"83714","21127",NA,NA,NA,NA,NA,NA,NA,NA,NA,NA,NA,NA,NA,"216",NA,NA,NA,"CL",NA,NA,NA,NA,NA,"36.366667","-114.87861100000001",NA,NA,NA,NA,NA,NA,NA,NA,NA,NA,NA,NA,NA,NA,NA,NA,NA,NA,NA,"TRUE"
"NV","WD","GW","IN",NA,"republic environmental technologies incorporated",NA,NA,"83715",NA,NA,NA,NA,NA,NA,NA,NA,NA,NA,NA,NA,NA,NA,"216",NA,NA,NA,"CL",NA,NA,NA,NA,NA,"36.373888999999998","-114.869444",NA,NA,NA,NA,NA,NA,NA,NA,NA,NA,NA,NA,NA,NA,NA,NA,NA,NA,NA,"TRUE"
"NV","WD","GW","IN",NA,"republic environmental technologies incorporated",NA,NA,"83716",NA,NA,NA,NA,NA,NA,NA,NA,NA,NA,NA,NA,NA,NA,"216",NA,NA,NA,"CL",NA,NA,NA,NA,NA,"36.388333000000003","-114.869444",NA,NA,NA,NA,NA,NA,NA,NA,NA,NA,NA,NA,NA,NA,NA,NA,NA,NA,NA,"TRUE"
"NV","WD","GW","IN",NA,"republic environmental technologies incorporated",NA,NA,"83717","21128",NA,NA,NA,NA,NA,NA,NA,NA,NA,NA,NA,NA,NA,"216",NA,NA,NA,"CL",NA,NA,NA,NA,NA,"36.395833000000003","-114.869444",NA,NA,NA,NA,NA,NA,NA,NA,NA,NA,NA,NA,NA,NA,NA,NA,NA,NA,NA,"TRUE"
"NV","WD","GW","IN",NA,"republic silver state disposal incorporated",NA,NA,"65484","17047",NA,NA,NA,NA,NA,NA,NA,NA,NA,NA,NA,NA,NA,"212",NA,NA,NA,"CL",NA,NA,NA,NA,NA,"35.932096000000001","-115.199566",NA,NA,NA,NA,NA,NA,NA,NA,NA,NA,NA,NA,NA,NA,NA,NA,NA,NA,NA,"TRUE"
"NV","WD","GW","IN",NA,"robinson nevada mining company",NA,NA,"43378",NA,NA,NA,NA,NA,NA,NA,NA,NA,NA,NA,NA,NA,NA,"179",NA,NA,NA,"WP",NA,NA,NA,NA,NA,"39.258476999999999","-114.968935",NA,NA,NA,NA,NA,NA,NA,NA,NA,NA,NA,NA,NA,NA,NA,NA,NA,NA,NA,"TRUE"
"NV","WD","GW","IN",NA,"robinson nevada mining company",NA,NA,"43379",NA,NA,NA,NA,NA,NA,NA,NA,NA,NA,NA,NA,NA,NA,"179",NA,NA,NA,"WP",NA,NA,NA,NA,NA,"39.258603999999998","-115.003652",NA,NA,NA,NA,NA,NA,NA,NA,NA,NA,NA,NA,NA,NA,NA,NA,NA,NA,NA,"TRUE"
"NV","WD","GW","IN",NA,"rocks nevada and mcguire lee and karla elson",NA,NA,"66740","17557",NA,NA,NA,NA,NA,NA,NA,NA,NA,NA,NA,NA,NA,"102",NA,NA,NA,"LY",NA,NA,NA,NA,NA,"39.430300000000003","-119.19866",NA,NA,NA,NA,NA,NA,NA,NA,NA,NA,NA,NA,NA,NA,NA,NA,NA,NA,NA,"TRUE"
"NV","WD","GW","IN",NA,"rocky mountain agronomics incorporated",NA,NA,"82141",NA,NA,NA,NA,NA,NA,NA,NA,NA,NA,NA,NA,NA,NA,"69",NA,NA,NA,"HU",NA,NA,NA,NA,NA,"41.165215000000003","-117.680206",NA,NA,NA,NA,NA,NA,NA,NA,NA,NA,NA,NA,NA,NA,NA,NA,NA,NA,NA,"TRUE"
"NV","WD","GW","IN",NA,"rodney j and laurel l glinsmann",NA,NA,"80017",NA,NA,NA,NA,NA,NA,NA,NA,NA,NA,NA,NA,NA,NA,"70",NA,NA,NA,"HU",NA,NA,NA,NA,NA,"40.913100999999997","-117.834294",NA,NA,NA,NA,NA,NA,NA,NA,NA,NA,NA,NA,NA,NA,NA,NA,NA,NA,NA,"TRUE"
"NV","WD",NA,NA,NA,"ruby pipeline limited liability corporation",NA,NA,NA,NA,NA,NA,NA,NA,NA,"486210","4922",NA,NA,NA,NA,NA,NA,NA,NA,NA,NA,NA,NA,NA,NA,NA,NA,NA,NA,NA,NA,NA,NA,NA,NA,NA,NA,NA,NA,NA,NA,NA,NA,NA,NA,NA,NA,NA,"TRUE"
"NV","WD","GW","IN",NA,"s p p company tracy power station",NA,NA,"67977",NA,NA,NA,NA,NA,NA,NA,NA,NA,NA,NA,NA,NA,NA,"83",NA,NA,NA,"ST",NA,NA,NA,NA,NA,"39.562308999999999","-119.52353600000001",NA,NA,NA,NA,NA,NA,NA,NA,NA,NA,NA,NA,NA,NA,NA,NA,NA,NA,NA,"TRUE"
"NV","WD","GW","IN",NA,"safety kleen systems incorporated",NA,NA,"71713","20011",NA,NA,NA,NA,NA,NA,NA,NA,NA,NA,NA,NA,NA,"101",NA,NA,NA,"CH",NA,NA,NA,NA,NA,"39.499254999999998","-119.040646",NA,NA,NA,NA,NA,NA,NA,NA,NA,NA,NA,NA,NA,NA,NA,NA,NA,NA,NA,"TRUE"
"NV","WD","GW","IN",NA,"safety kleen systems incorporated",NA,NA,"80516","20778",NA,NA,NA,NA,NA,NA,NA,NA,NA,NA,NA,NA,NA,"101",NA,NA,NA,"CH",NA,NA,NA,NA,NA,"39.499254999999998","-119.040646",NA,NA,NA,NA,NA,NA,NA,NA,NA,NA,NA,NA,NA,NA,NA,NA,NA,NA,NA,"TRUE"
"NV","WD","GW","IN",NA,"schwarzer henry",NA,NA,"31219","10645",NA,NA,NA,NA,NA,NA,NA,NA,NA,NA,NA,NA,NA,"105",NA,NA,NA,"DO",NA,NA,NA,NA,NA,"39.000430999999999","-119.76181099999999",NA,NA,NA,NA,NA,NA,NA,NA,NA,NA,NA,NA,NA,NA,NA,NA,NA,NA,NA,"TRUE"
"NV","WD","GW","IN",NA,"schwarzer henry",NA,NA,"46020","12937",NA,NA,NA,NA,NA,NA,NA,NA,NA,NA,NA,NA,NA,"105",NA,NA,NA,"DO",NA,NA,NA,NA,NA,"39.000430999999999","-119.76181099999999",NA,NA,NA,NA,NA,NA,NA,NA,NA,NA,NA,NA,NA,NA,NA,NA,NA,NA,NA,"TRUE"
"NV","WD",NA,NA,NA,"service rock products",NA,NA,NA,NA,NA,NA,NA,NA,NA,"327320","3273",NA,NA,NA,NA,NA,NA,NA,NA,NA,NA,NA,NA,NA,NA,NA,NA,NA,NA,NA,NA,NA,NA,NA,NA,NA,NA,NA,NA,NA,NA,NA,NA,NA,NA,NA,NA,NA,"TRUE"
"NV","WD","GW","IN",NA,"shell oil company",NA,NA,"16728","5375",NA,NA,NA,NA,NA,NA,NA,NA,NA,NA,NA,NA,NA,"173b",NA,NA,NA,"NY",NA,NA,NA,NA,NA,"38.600630000000002","-115.53471",NA,NA,NA,NA,NA,NA,NA,NA,NA,NA,NA,NA,NA,NA,NA,NA,NA,NA,NA,"TRUE"
"NV","WD","GW","IN",NA,"shell oil company",NA,NA,"16729","5376",NA,NA,NA,NA,NA,NA,NA,NA,NA,NA,NA,NA,NA,"173b",NA,NA,NA,"NY",NA,NA,NA,NA,NA,"38.600549999999998","-115.53473",NA,NA,NA,NA,NA,NA,NA,NA,NA,NA,NA,NA,NA,NA,NA,NA,NA,NA,NA,"TRUE"
"NV","WD","GW","IN",NA,"sierra chemical company",NA,NA,"55625","15956",NA,NA,NA,NA,NA,NA,NA,NA,NA,NA,NA,NA,NA,"61",NA,NA,NA,"LA",NA,NA,NA,NA,NA,"40.695143000000002","-116.876037",NA,NA,NA,NA,NA,NA,NA,NA,NA,NA,NA,NA,NA,NA,NA,NA,NA,NA,NA,"TRUE"
"NV","WD","GW","IN",NA,"sierra pacific power company",NA,NA,"69371",NA,NA,NA,NA,NA,NA,NA,NA,NA,NA,NA,NA,NA,NA,"83",NA,NA,NA,"ST",NA,NA,NA,NA,NA,"39.562308999999999","-119.52353600000001",NA,NA,NA,NA,NA,NA,NA,NA,NA,NA,NA,NA,NA,NA,NA,NA,NA,NA,NA,"TRUE"
"NV","WD",NA,NA,NA,"sierra ready mix",NA,NA,"82140",NA,NA,NA,NA,NA,NA,"327320","3273",NA,NA,NA,NA,NA,NA,NA,NA,NA,NA,NA,NA,NA,NA,NA,NA,NA,NA,NA,NA,NA,NA,NA,NA,NA,NA,NA,NA,NA,NA,NA,NA,NA,NA,NA,NA,NA,"TRUE"
"NV","WD","GW","IN",NA,"sierra ready mix limited liability corporation",NA,NA,"82140",NA,NA,NA,NA,NA,NA,NA,NA,NA,NA,NA,NA,NA,NA,"164a",NA,NA,NA,"CL",NA,NA,NA,NA,NA,"35.712072999999997","-115.302753",NA,NA,NA,NA,NA,NA,NA,NA,NA,NA,NA,NA,NA,NA,NA,NA,NA,NA,NA,"TRUE"
"NV","WD","GW","IN",NA,"sierra ready mix limited liability corporation",NA,NA,"66923",NA,NA,NA,NA,NA,NA,NA,NA,NA,NA,NA,NA,NA,NA,"164a",NA,NA,NA,"CL",NA,NA,NA,NA,NA,"35.711969000000003","-115.302755",NA,NA,NA,NA,NA,NA,NA,NA,NA,NA,NA,NA,NA,NA,NA,NA,NA,NA,NA,"TRUE"
"NV","WD","GW","IN",NA,"sire incorporated",NA,NA,"87145",NA,NA,NA,NA,NA,NA,NA,NA,NA,NA,NA,NA,NA,NA,"212",NA,NA,NA,"CL",NA,NA,NA,NA,NA,"35.930559000000002","-115.20292999999999",NA,NA,NA,NA,NA,NA,NA,NA,NA,NA,NA,NA,NA,NA,NA,NA,NA,NA,NA,"TRUE"
"NV","WD","GW","IN",NA,"smith lee",NA,NA,"45275","11904",NA,NA,NA,NA,NA,NA,NA,NA,NA,NA,NA,NA,NA,"83",NA,NA,NA,"WA",NA,NA,NA,NA,NA,"39.624960000000002","-119.271328",NA,NA,NA,NA,NA,NA,NA,NA,NA,NA,NA,NA,NA,NA,NA,NA,NA,NA,NA,"TRUE"
"NV","WD","GW","IN",NA,"smith lee",NA,NA,"46536","11906",NA,NA,NA,NA,NA,NA,NA,NA,NA,NA,NA,NA,NA,"83",NA,NA,NA,"WA",NA,NA,NA,NA,NA,"39.629030999999998","-119.272944",NA,NA,NA,NA,NA,NA,NA,NA,NA,NA,NA,NA,NA,NA,NA,NA,NA,NA,NA,"TRUE"
"NV","WD","GW","IN",NA,"smith lee",NA,NA,"53379","13064",NA,NA,NA,NA,NA,NA,NA,NA,NA,NA,NA,NA,NA,"83",NA,NA,NA,"WA",NA,NA,NA,NA,NA,"39.629030999999998","-119.272944",NA,NA,NA,NA,NA,NA,NA,NA,NA,NA,NA,NA,NA,NA,NA,NA,NA,NA,NA,"TRUE"
"NV","WD","GW","IN",NA,"smith lee",NA,NA,"53820","13065",NA,NA,NA,NA,NA,NA,NA,NA,NA,NA,NA,NA,NA,"83",NA,NA,NA,"WA",NA,NA,NA,NA,NA,"39.624960000000002","-119.271328",NA,NA,NA,NA,NA,NA,NA,NA,NA,NA,NA,NA,NA,NA,NA,NA,NA,NA,NA,"TRUE"
"NV","WD","GW","IN",NA,"smith lee",NA,NA,"54195","13066",NA,NA,NA,NA,NA,NA,NA,NA,NA,NA,NA,NA,NA,"83",NA,NA,NA,"WA",NA,NA,NA,NA,NA,"39.625683000000002","-119.271387",NA,NA,NA,NA,NA,NA,NA,NA,NA,NA,NA,NA,NA,NA,NA,NA,NA,NA,NA,"TRUE"
"NV","WD","SW","IN",NA,"south fork limited liability corporation",NA,NA,"77532",NA,NA,NA,NA,NA,NA,NA,NA,NA,NA,NA,NA,NA,NA,"47",NA,NA,NA,"EL",NA,NA,NA,NA,NA,"40.617328999999998","-115.729084",NA,NA,NA,NA,NA,NA,NA,NA,NA,NA,NA,NA,NA,NA,NA,NA,NA,NA,NA,"TRUE"
"NV","WD","SW","IN",NA,"southern nevada water authority",NA,NA,"29295","9609",NA,NA,NA,NA,NA,NA,NA,NA,NA,NA,NA,NA,NA,"219",NA,NA,NA,"CL",NA,NA,NA,NA,NA,"36.71152","-114.69595200000001",NA,NA,NA,NA,NA,NA,NA,NA,NA,NA,NA,NA,NA,NA,NA,NA,NA,NA,NA,"TRUE"
"NV","WD","SW","IN",NA,"sppc",NA,NA,"19881","6572",NA,NA,NA,NA,NA,NA,NA,NA,NA,NA,NA,NA,NA,"83",NA,NA,NA,"ST",NA,NA,NA,NA,NA,"39.564607000000002","-119.52328900000001",NA,NA,NA,NA,NA,NA,NA,NA,NA,NA,NA,NA,NA,NA,NA,NA,NA,NA,NA,"TRUE"
"NV","WD","SW","IN",NA,"sppc",NA,NA,"19883","6229",NA,NA,NA,NA,NA,NA,NA,NA,NA,NA,NA,NA,NA,"83",NA,NA,NA,"ST",NA,NA,NA,NA,NA,"39.564607000000002","-119.52328900000001",NA,NA,NA,NA,NA,NA,NA,NA,NA,NA,NA,NA,NA,NA,NA,NA,NA,NA,NA,"TRUE"
"NV","WD","SW","IN",NA,"sppc",NA,NA,"19886","6232",NA,NA,NA,NA,NA,NA,NA,NA,NA,NA,NA,NA,NA,"83",NA,NA,NA,"ST",NA,NA,NA,NA,NA,"39.564607000000002","-119.52328900000001",NA,NA,NA,NA,NA,NA,NA,NA,NA,NA,NA,NA,NA,NA,NA,NA,NA,NA,NA,"TRUE"
"NV","WD","GW","IN",NA,"sppc",NA,NA,"26311","8148",NA,NA,NA,NA,NA,NA,NA,NA,NA,NA,NA,NA,NA,"108",NA,NA,NA,"LY",NA,NA,NA,NA,NA,"39.098649999999999","-119.128468",NA,NA,NA,NA,NA,NA,NA,NA,NA,NA,NA,NA,NA,NA,NA,NA,NA,NA,NA,"TRUE"
"NV","WD","GW","IN",NA,"sppc",NA,NA,"26312","8149",NA,NA,NA,NA,NA,NA,NA,NA,NA,NA,NA,NA,NA,"108",NA,NA,NA,"LY",NA,NA,NA,NA,NA,"39.106962000000003","-119.12907",NA,NA,NA,NA,NA,NA,NA,NA,NA,NA,NA,NA,NA,NA,NA,NA,NA,NA,NA,"TRUE"
"NV","WD","GW","IN",NA,"sppc",NA,NA,"28054","9207",NA,NA,NA,NA,NA,NA,NA,NA,NA,NA,NA,NA,NA,"83",NA,NA,NA,"ST",NA,NA,NA,NA,NA,"39.562176000000001","-119.521682",NA,NA,NA,NA,NA,NA,NA,NA,NA,NA,NA,NA,NA,NA,NA,NA,NA,NA,NA,"TRUE"
"NV","WD","SW","IN",NA,"sppc",NA,NA,"28192","8768",NA,NA,NA,NA,NA,NA,NA,NA,NA,NA,NA,NA,NA,"83",NA,NA,NA,"ST",NA,NA,NA,NA,NA,"39.564607000000002","-119.52328900000001",NA,NA,NA,NA,NA,NA,NA,NA,NA,NA,NA,NA,NA,NA,NA,NA,NA,NA,NA,"TRUE"
"NV","WD","GW","IN",NA,"sppc",NA,NA,"29004","12738",NA,NA,NA,NA,NA,NA,NA,NA,NA,NA,NA,NA,NA,"64",NA,NA,NA,"HU",NA,NA,NA,NA,NA,"40.797654000000001","-117.12633700000001",NA,NA,NA,NA,NA,NA,NA,NA,NA,NA,NA,NA,NA,NA,NA,NA,NA,NA,NA,"TRUE"
"NV","WD","SW","IN",NA,"sppc",NA,NA,"29213","9199",NA,NA,NA,NA,NA,NA,NA,NA,NA,NA,NA,NA,NA,"83",NA,NA,NA,"ST",NA,NA,NA,NA,NA,"39.564607000000002","-119.52328900000001",NA,NA,NA,NA,NA,NA,NA,NA,NA,NA,NA,NA,NA,NA,NA,NA,NA,NA,NA,"TRUE"
"NV","WD","SW","IN",NA,"sppc",NA,NA,"29214","9200",NA,NA,NA,NA,NA,NA,NA,NA,NA,NA,NA,NA,NA,"83",NA,NA,NA,"ST",NA,NA,NA,NA,NA,"39.564607000000002","-119.52328900000001",NA,NA,NA,NA,NA,NA,NA,NA,NA,NA,NA,NA,NA,NA,NA,NA,NA,NA,NA,"TRUE"
"NV","WD","SW","IN",NA,"sppc",NA,NA,"29215","9201",NA,NA,NA,NA,NA,NA,NA,NA,NA,NA,NA,NA,NA,"83",NA,NA,NA,"ST",NA,NA,NA,NA,NA,"39.564607000000002","-119.52328900000001",NA,NA,NA,NA,NA,NA,NA,NA,NA,NA,NA,NA,NA,NA,NA,NA,NA,NA,NA,"TRUE"
"NV","WD","SW","IN",NA,"sppc",NA,NA,"29216","9202",NA,NA,NA,NA,NA,NA,NA,NA,NA,NA,NA,NA,NA,"83",NA,NA,NA,"ST",NA,NA,NA,NA,NA,"39.564607000000002","-119.52328900000001",NA,NA,NA,NA,NA,NA,NA,NA,NA,NA,NA,NA,NA,NA,NA,NA,NA,NA,NA,"TRUE"
"NV","WD","GW","IN",NA,"sppc",NA,NA,"30426",NA,NA,NA,NA,NA,NA,NA,NA,NA,NA,NA,NA,NA,NA,"64",NA,NA,NA,"LA",NA,NA,NA,NA,NA,"40.843307000000003","-116.979056",NA,NA,NA,NA,NA,NA,NA,NA,NA,NA,NA,NA,NA,NA,NA,NA,NA,NA,NA,"TRUE"
"NV","WD","GW","IN",NA,"sppc",NA,NA,"30428","12739",NA,NA,NA,NA,NA,NA,NA,NA,NA,NA,NA,NA,NA,"64",NA,NA,NA,"LA",NA,NA,NA,NA,NA,"40.878810000000001","-116.970271",NA,NA,NA,NA,NA,NA,NA,NA,NA,NA,NA,NA,NA,NA,NA,NA,NA,NA,NA,"TRUE"
"NV","WD","GW","IN",NA,"sppc",NA,NA,"30429","12740",NA,NA,NA,NA,NA,NA,NA,NA,NA,NA,NA,NA,NA,"64",NA,NA,NA,"LA",NA,NA,NA,NA,NA,"40.892203000000002","-116.954042",NA,NA,NA,NA,NA,NA,NA,NA,NA,NA,NA,NA,NA,NA,NA,NA,NA,NA,NA,"TRUE"
"NV","WD","GW","IN",NA,"sppc",NA,NA,"30510","12741",NA,NA,NA,NA,NA,NA,NA,NA,NA,NA,NA,NA,NA,"64",NA,NA,NA,"HU",NA,NA,NA,NA,NA,"40.744633","-117.032624",NA,NA,NA,NA,NA,NA,NA,NA,NA,NA,NA,NA,NA,NA,NA,NA,NA,NA,NA,"TRUE"
"NV","WD","GW","IN",NA,"sppc",NA,NA,"30514","12742",NA,NA,NA,NA,NA,NA,NA,NA,NA,NA,NA,NA,NA,"64",NA,NA,NA,"HU",NA,NA,NA,NA,NA,"40.749316","-117.06382600000001",NA,NA,NA,NA,NA,NA,NA,NA,NA,NA,NA,NA,NA,NA,NA,NA,NA,NA,NA,"TRUE"
"NV","WD","GW","IN",NA,"sppc",NA,NA,"30515",NA,NA,NA,NA,NA,NA,NA,NA,NA,NA,NA,NA,NA,NA,"64",NA,NA,NA,"HU",NA,NA,NA,NA,NA,"40.706373999999997","-117.045917",NA,NA,NA,NA,NA,NA,NA,NA,NA,NA,NA,NA,NA,NA,NA,NA,NA,NA,NA,"TRUE"
"NV","WD","GW","IN",NA,"sppc",NA,NA,"30516","12743",NA,NA,NA,NA,NA,NA,NA,NA,NA,NA,NA,NA,NA,"64",NA,NA,NA,"HU",NA,NA,NA,NA,NA,"40.786287000000002","-117.090538",NA,NA,NA,NA,NA,NA,NA,NA,NA,NA,NA,NA,NA,NA,NA,NA,NA,NA,NA,"TRUE"
"NV","WD","GW","IN",NA,"sppc",NA,NA,"31165",NA,NA,NA,NA,NA,NA,NA,NA,NA,NA,NA,NA,NA,NA,"64",NA,NA,NA,"HU",NA,NA,NA,NA,NA,"40.684579999999997","-117.034085",NA,NA,NA,NA,NA,NA,NA,NA,NA,NA,NA,NA,NA,NA,NA,NA,NA,NA,NA,"TRUE"
"NV","WD","GW","IN",NA,"sppc",NA,NA,"31751",NA,NA,NA,NA,NA,NA,NA,NA,NA,NA,NA,NA,NA,NA,"64",NA,NA,NA,"HU",NA,NA,NA,NA,NA,"40.839435999999999","-117.187039",NA,NA,NA,NA,NA,NA,NA,NA,NA,NA,NA,NA,NA,NA,NA,NA,NA,NA,NA,"TRUE"
"NV","WD","GW","IN",NA,"sppc",NA,NA,"35577","13597",NA,NA,NA,NA,NA,NA,NA,NA,NA,NA,NA,NA,NA,"64",NA,NA,NA,"HU",NA,NA,NA,NA,NA,"40.783276000000001","-117.110293",NA,NA,NA,NA,NA,NA,NA,NA,NA,NA,NA,NA,NA,NA,NA,NA,NA,NA,NA,"TRUE"
"NV","WD","GW","IN",NA,"sppc",NA,NA,"37177","12745",NA,NA,NA,NA,NA,NA,NA,NA,NA,NA,NA,NA,NA,"64",NA,NA,NA,"HU",NA,NA,NA,NA,NA,"40.729005999999998","-117.053027",NA,NA,NA,NA,NA,NA,NA,NA,NA,NA,NA,NA,NA,NA,NA,NA,NA,NA,NA,"TRUE"
"NV","WD","GW","IN",NA,"sppc",NA,NA,"38727",NA,NA,NA,NA,NA,NA,NA,NA,NA,NA,NA,NA,NA,NA,"64",NA,NA,NA,"LA",NA,NA,NA,NA,NA,"40.679872000000003","-117.01446",NA,NA,NA,NA,NA,NA,NA,NA,NA,NA,NA,NA,NA,NA,NA,NA,NA,NA,NA,"TRUE"
"NV","WD","GW","IN",NA,"sppc",NA,NA,"41001",NA,NA,NA,NA,NA,NA,NA,NA,NA,NA,NA,NA,NA,NA,"64",NA,NA,NA,"LA",NA,NA,NA,NA,NA,"40.867547000000002","-116.920884",NA,NA,NA,NA,NA,NA,NA,NA,NA,NA,NA,NA,NA,NA,NA,NA,NA,NA,NA,"TRUE"
"NV","WD","GW","IN",NA,"sppc",NA,NA,"41002","12746",NA,NA,NA,NA,NA,NA,NA,NA,NA,NA,NA,NA,NA,"64",NA,NA,NA,"LA",NA,NA,NA,NA,NA,"40.878473","-116.934648",NA,NA,NA,NA,NA,NA,NA,NA,NA,NA,NA,NA,NA,NA,NA,NA,NA,NA,NA,"TRUE"
"NV","WD","GW","IN",NA,"sppc",NA,NA,"41003",NA,NA,NA,NA,NA,NA,NA,NA,NA,NA,NA,NA,NA,NA,"64",NA,NA,NA,"LA",NA,NA,NA,NA,NA,"40.863836999999997","-116.945007",NA,NA,NA,NA,NA,NA,NA,NA,NA,NA,NA,NA,NA,NA,NA,NA,NA,NA,NA,"TRUE"
"NV","WD","GW","IN",NA,"sppc",NA,NA,"41004","12747",NA,NA,NA,NA,NA,NA,NA,NA,NA,NA,NA,NA,NA,"64",NA,NA,NA,"LA",NA,NA,NA,NA,NA,"40.856900000000003","-116.96657399999999",NA,NA,NA,NA,NA,NA,NA,NA,NA,NA,NA,NA,NA,NA,NA,NA,NA,NA,NA,"TRUE"
"NV","WD","GW","IN",NA,"sppc",NA,NA,"41006",NA,NA,NA,NA,NA,NA,NA,NA,NA,NA,NA,NA,NA,NA,"64",NA,NA,NA,"HU",NA,NA,NA,NA,NA,"40.696672999999997","-117.032601",NA,NA,NA,NA,NA,NA,NA,NA,NA,NA,NA,NA,NA,NA,NA,NA,NA,NA,NA,"TRUE"
"NV","WD","GW","IN",NA,"sppc",NA,NA,"41007",NA,NA,NA,NA,NA,NA,NA,NA,NA,NA,NA,NA,NA,NA,"64",NA,NA,NA,"LA",NA,NA,NA,NA,NA,"40.853369000000001","-116.93964099999999",NA,NA,NA,NA,NA,NA,NA,NA,NA,NA,NA,NA,NA,NA,NA,NA,NA,NA,NA,"TRUE"
"NV","WD","GW","IN",NA,"sppc",NA,NA,"41441",NA,NA,NA,NA,NA,NA,NA,NA,NA,NA,NA,NA,NA,NA,"64",NA,NA,NA,"LA",NA,NA,NA,NA,NA,"40.867547000000002","-116.920884",NA,NA,NA,NA,NA,NA,NA,NA,NA,NA,NA,NA,NA,NA,NA,NA,NA,NA,NA,"TRUE"
"NV","WD","GW","IN",NA,"sppc",NA,NA,"41442","12749",NA,NA,NA,NA,NA,NA,NA,NA,NA,NA,NA,NA,NA,"64",NA,NA,NA,"LA",NA,NA,NA,NA,NA,"40.863836999999997","-116.945007",NA,NA,NA,NA,NA,NA,NA,NA,NA,NA,NA,NA,NA,NA,NA,NA,NA,NA,NA,"TRUE"
"NV","WD","GW","IN",NA,"sppc",NA,NA,"41443",NA,NA,NA,NA,NA,NA,NA,NA,NA,NA,NA,NA,NA,NA,"64",NA,NA,NA,"LA",NA,NA,NA,NA,NA,"40.853369000000001","-116.93964099999999",NA,NA,NA,NA,NA,NA,NA,NA,NA,NA,NA,NA,NA,NA,NA,NA,NA,NA,NA,"TRUE"
"NV","WD","GW","IN",NA,"sppc",NA,NA,"41444","12750",NA,NA,NA,NA,NA,NA,NA,NA,NA,NA,NA,NA,NA,"64",NA,NA,NA,"LA",NA,NA,NA,NA,NA,"40.853369000000001","-116.93964099999999",NA,NA,NA,NA,NA,NA,NA,NA,NA,NA,NA,NA,NA,NA,NA,NA,NA,NA,NA,"TRUE"
"NV","WD","GW","IN",NA,"sppc",NA,NA,"41445","12751",NA,NA,NA,NA,NA,NA,NA,NA,NA,NA,NA,NA,NA,"64",NA,NA,NA,"LA",NA,NA,NA,NA,NA,"40.878473","-116.934648",NA,NA,NA,NA,NA,NA,NA,NA,NA,NA,NA,NA,NA,NA,NA,NA,NA,NA,NA,"TRUE"
"NV","WD","GW","IN",NA,"sppc",NA,NA,"47986",NA,NA,NA,NA,NA,NA,NA,NA,NA,NA,NA,NA,NA,NA,"64",NA,NA,NA,"HU",NA,NA,NA,NA,NA,"40.815171999999997","-117.13597900000001",NA,NA,NA,NA,NA,NA,NA,NA,NA,NA,NA,NA,NA,NA,NA,NA,NA,NA,NA,"TRUE"
"NV","WD","GW","IN",NA,"sppc",NA,NA,"47987","12754",NA,NA,NA,NA,NA,NA,NA,NA,NA,NA,NA,NA,NA,"64",NA,NA,NA,"HU",NA,NA,NA,NA,NA,"40.696672999999997","-117.032601",NA,NA,NA,NA,NA,NA,NA,NA,NA,NA,NA,NA,NA,NA,NA,NA,NA,NA,NA,"TRUE"
"NV","WD","GW","IN",NA,"sppc",NA,NA,"47988",NA,NA,NA,NA,NA,NA,NA,NA,NA,NA,NA,NA,NA,NA,"64",NA,NA,NA,"HU",NA,NA,NA,NA,NA,"40.815359999999998","-117.13505600000001",NA,NA,NA,NA,NA,NA,NA,NA,NA,NA,NA,NA,NA,NA,NA,NA,NA,NA,NA,"TRUE"
"NV","WD","GW","IN",NA,"sppc",NA,NA,"55132",NA,NA,NA,NA,NA,NA,NA,NA,NA,NA,NA,NA,NA,NA,"64",NA,NA,NA,"HU",NA,NA,NA,NA,NA,"40.839849000000001","-117.185581",NA,NA,NA,NA,NA,NA,NA,NA,NA,NA,NA,NA,NA,NA,NA,NA,NA,NA,NA,"TRUE"
"NV","WD","GW","IN",NA,"sppc",NA,NA,"56333",NA,NA,NA,NA,NA,NA,NA,NA,NA,NA,NA,NA,NA,NA,"64",NA,NA,NA,"HU",NA,NA,NA,NA,NA,"40.839604000000001","-117.18714900000001",NA,NA,NA,NA,NA,NA,NA,NA,NA,NA,NA,NA,NA,NA,NA,NA,NA,NA,NA,"TRUE"
"NV","WD","GW","IN",NA,"sppc",NA,NA,"56750",NA,NA,NA,NA,NA,NA,NA,NA,NA,NA,NA,NA,NA,NA,"64",NA,NA,NA,"LA",NA,NA,NA,NA,NA,"40.867547000000002","-116.920884",NA,NA,NA,NA,NA,NA,NA,NA,NA,NA,NA,NA,NA,NA,NA,NA,NA,NA,NA,"TRUE"
"NV","WD","GW","IN",NA,"sppc",NA,NA,"60080","18419",NA,NA,NA,NA,NA,NA,NA,NA,NA,NA,NA,NA,NA,"83",NA,NA,NA,"ST",NA,NA,NA,NA,NA,"39.562308999999999","-119.52353600000001",NA,NA,NA,NA,NA,NA,NA,NA,NA,NA,NA,NA,NA,NA,NA,NA,NA,NA,NA,"TRUE"
